Session Time,GPS Fix Quality,Number of Satellites,GPS Date & Time,Latitude (deg),Longitude (deg),GPS Altitude (feet),Ground Speed (knots),Ground Track (deg),Mag Var (deg),Cross Track Error (NM),Destination Waypoint ID,Range to Destination (NM),Bearing to Destination (deg),System Time,Pitch (deg),Roll (deg),Magnetic Heading (deg),Indicated Airspeed (knots),Pressure Altitude (ft),Turn Rate (deg/s),Lateral Accel (g),Vertical Accel(g),Angle of Attack (%),Vertical Speed (ft/min),OAT (deg C),True Airspeed (knots),Barometer Setting (inHg),Density Altitude (ft),Wind Direction (deg),Wind Speed (knots),Heading Bug (deg),Altitude Bug (ft),Airspeed Bug (knots),Vertical Speed Bug (ft/min),Course (deg),CDI Source Type,CDI Source Port,CDI Scale (NM),CDI Deflection (%),Glideslope (%),AP Engaged,AP Roll Mode,AP Roll Force,AP Roll Position (steps),AP Roll Slip (bool),AP Pitch Force,AP Pitch Position (steps),AP Pitch Slip (bool),AP Yaw Force,AP Yaw Position,AP Yaw Slip (bool),Transponder Status,Transponder Reply (bool),Transponder Identing (bool),Transponder Code (octal),Oil Pressure (PSI),Oil Temp (deg C),RPM L,RPM R,Manifold Pressure (inHg),Fuel Flow 1 (gal/hr),Fuel Flow 2 (gal/hr),Fuel Pressure (PSI),Fuel Level L (gal),Fuel Level R (gal),Fuel Remaining (gal),Volts 1,Volts 2,Amps,Hobbs Time,Tach Time,Thermocouple 1 (deg C),Thermocouple 2 (deg C),Thermocouple 3 (deg C),Thermocouple 4 (deg C),Thermocouple 5 (deg C),Thermocouple 6 (deg C),Thermocouple 7 (deg C),Thermocouple 8 (deg C),Thermocouple 9 (deg C),Thermocouple 10 (deg C),Thermocouple 11 (deg C),Thermocouple 12 (deg C),Thermocouple 13 (deg C),Thermocouple 14 (deg C),CHT L TEMPERATURE (deg C),AILERN POSITION (%),ELEV POSITION (%),FUEL PRESSURE (PSI),F PUMP CONTACT (V),GEN CONTACT (V),CANOPY CONTACT (V),CHT R TEMPERATURE (deg C),LEFT LEVEL (gal),RIGHT LEVEL (gal),OIL PRESSURE (PSI),OIL TEMPERATURE (deg C),FLAPS POSITION (deg),Contacts,Percent Power,EGT Leaning State,
36.56,1,4,2018-07-27 08:29:59,+43.50294,+5.37162,605,0.0,0.0,-1.7,,,,,08:29:59,+4.6,+0.9,132.0,0.0,+376,+0.1,+0.02,+1.0,,-11,+31,0.0,29.89,+2399,,,324,,60.0,+0,,1,1,,,,,,,,,,,,,,,,,,,4,+26,0,0,30.5,0.0,0.0,0.0,11.8,10.1,21.8,12.3,,-2.3,2401.0,2379.6,,,,,,,,,,,,,,,+26.0,+12,+6,+0.0,+4.998,+0.000,+0.000,+25.3,+11.8,+10.1,+3.6,+26.2,+0,,,,
36.81,1,4,2018-07-27 08:29:59,+43.50296,+5.37167,582,0.2,0.0,-1.7,,,,,08:29:59,+4.6,+0.9,132.1,0.0,+376,+0.1,+0.01,+1.0,,+2,+31,0.0,29.89,+2399,,,324,,60.0,+0,,1,1,,,,,,,,,,,,,,,,,,,4,+26,0,0,30.5,0.0,0.0,0.0,11.8,10.1,21.8,12.3,,-2.4,2401.0,2379.6,,,,,,,,,,,,,,,+26.0,+12,+6,+0.0,+4.998,+0.000,+0.000,+25.3,+11.8,+10.1,+3.7,+26.2,+0,,,,
37.06,1,4,2018-07-27 08:29:59,+43.50297,+5.37164,586,0.1,0.0,-1.7,,,,,08:29:59,+4.6,+0.9,132.0,0.0,+376,+0.1,+0.01,+1.0,,+2,+31,0.0,29.89,+2399,,,324,,60.0,+0,,1,1,,,,,,,,,,,,,,,,,,,4,+26,0,0,30.5,0.0,0.0,0.0,11.8,10.2,21.8,12.2,,-2.4,2401.0,2379.6,,,,,,,,,,,,,,,+26.0,+12,+7,+0.0,+4.998,+0.000,+0.000,+25.3,+11.8,+10.2,+3.7,+26.2,+0,,,,
37.31,1,4,2018-07-27 08:30:00,+43.50300,+5.37159,599,0.0,0.0,-1.7,,,,,08:29:59,+4.6,+0.9,132.0,0.0,+376,+0.1,+0.01,+1.0,,+10,+31,0.0,29.89,+2399,,,324,,60.0,+0,,1,1,,,,,,,,,,,,,,,,,,,4,+26,0,0,30.5,0.0,0.0,0.0,11.8,10.2,21.8,12.2,,-2.3,2401.0,2379.6,,,,,,,,,,,,,,,+26.0,+12,+7,+0.0,+4.998,+0.000,+0.000,+25.3,+11.8,+10.2,+3.7,+26.2,+0,,,,
37.56,1,4,2018-07-27 08:30:00,+43.50298,+5.37157,611,0.0,0.0,-1.7,,,,,08:30:00,+4.6,+1.0,132.1,0.0,+376,+0.1,+0.01,+1.0,,+12,+31,0.0,29.89,+2399,,,324,,60.0,+0,,1,1,,,,,,,,,,,,,,,,,,,4,+26,0,0,30.5,0.0,0.0,0.0,11.8,10.2,21.8,12.2,,-2.3,2401.0,2379.6,,,,,,,,,,,,,,,+26.0,+12,+7,+0.0,+4.998,+0.000,+0.000,+25.3,+11.8,+10.2,+3.6,+26.2,+0,,,,
37.81,1,4,2018-07-27 08:30:00,+43.50296,+5.37159,609,0.0,0.0,-1.7,,,,,08:30:00,+4.6,+1.0,132.1,0.0,+376,+0.1,+0.01,+1.0,,+13,+31,0.0,29.89,+2399,,,324,,60.0,+0,,1,1,,,,,,,,,,,,,,,,,,,4,+26,0,0,30.5,0.0,0.0,0.0,11.8,10.2,21.8,12.2,,-2.3,2401.0,2379.6,,,,,,,,,,,,,,,+26.0,+12,+7,+0.0,+4.998,+0.000,+0.000,+25.3,+11.8,+10.2,+3.6,+26.2,+0,,,,
38.06,1,4,2018-07-27 08:30:00,+43.50296,+5.37157,611,0.0,0.0,-1.7,,,,,08:30:00,+4.6,+1.0,132.1,0.0,+376,+0.1,+0.01,+1.0,,+14,+31,0.0,29.89,+2399,,,324,,60.0,+0,,1,1,,,,,,,,,,,,,,,,,,,4,+26,0,0,30.5,0.0,0.0,0.0,11.8,10.3,21.8,12.2,,-2.4,2401.0,2379.6,,,,,,,,,,,,,,,+26.0,+12,+7,+0.0,+4.998,+0.000,+0.000,+25.3,+11.8,+10.3,+3.6,+26.2,+0,,,,
38.31,1,4,2018-07-27 08:30:01,+43.50296,+5.37160,608,0.0,0.0,-1.7,,,,,08:30:00,+4.6,+1.0,132.1,0.0,+376,+0.1,+0.01,+1.0,,+14,+31,0.0,29.89,+2399,,,324,,60.0,+0,,1,1,,,,,,,,,,,,,,,,,,,4,+26,0,0,30.5,0.0,0.0,0.0,11.8,10.3,21.8,12.2,,-2.4,2401.0,2379.6,,,,,,,,,,,,,,,+26.0,+12,+7,+0.0,+4.998,+0.000,+0.000,+25.3,+11.8,+10.3,+3.6,+26.2,+0,,,,
38.56,1,4,2018-07-27 08:30:01,+43.50296,+5.37161,607,0.0,0.0,-1.7,,,,,08:30:01,+4.6,+0.9,132.0,0.0,+376,+0.0,+0.01,+1.0,,+18,+31,0.0,29.89,+2399,,,324,,60.0,+0,,1,1,,,,,,,,,,,,,,,,,,,4,+26,0,0,30.5,0.0,0.0,0.0,11.8,10.3,21.8,12.2,,-2.3,2401.0,2379.6,,,,,,,,,,,,,,,+26.0,+12,+6,+0.0,+4.998,+0.000,+0.000,+25.3,+11.8,+10.3,+3.6,+26.2,+0,,,,
38.81,1,4,2018-07-27 08:30:01,+43.50296,+5.37161,609,0.0,0.0,-1.7,,,,,08:30:01,+4.6,+0.9,132.0,0.0,+376,+0.0,+0.01,+1.0,,+20,+31,0.0,29.89,+2399,,,324,,60.0,+0,,1,1,,,,,,,,,,,,,,,,,,,4,+26,0,0,30.5,0.0,0.0,0.0,11.8,10.3,21.8,12.2,,-2.3,2401.0,2379.6,,,,,,,,,,,,,,,+26.0,+12,+6,+0.0,+4.998,+0.000,+0.000,+25.3,+11.8,+10.3,+3.7,+26.2,+0,,,,
39.06,1,4,2018-07-27 08:30:01,+43.50295,+5.37161,611,0.1,0.0,-1.7,,,,,08:30:01,+4.6,+0.9,132.1,0.0,+376,+0.0,+0.01,+1.0,,+22,+31,0.0,29.89,+2399,,,324,,60.0,+0,,1,1,,,,,,,,,,,,,,,,,,,4,+26,0,0,30.5,0.0,0.0,0.0,11.8,10.3,21.8,12.3,,-2.3,2401.0,2379.6,,,,,,,,,,,,,,,+26.0,+12,+6,+0.0,+4.998,+0.000,+0.000,+25.3,+11.8,+10.3,+3.7,+26.2,+0,,,,
39.31,1,4,2018-07-27 08:30:02,+43.50294,+5.37162,610,0.1,0.0,-1.7,,,,,08:30:01,+4.6,+0.9,132.1,0.0,+376,+0.0,+0.01,+1.0,,+22,+31,0.0,29.89,+2399,,,324,,60.0,+0,,1,1,,,,,,,,,,,,,,,,,,,4,+26,0,0,30.5,0.0,0.0,0.0,11.8,10.3,21.8,12.3,,-2.4,2401.0,2379.6,,,,,,,,,,,,,,,+26.0,+12,+6,+0.0,+4.998,+0.000,+0.000,+25.3,+11.8,+10.3,+3.7,+26.2,+0,,,,
39.56,1,4,2018-07-27 08:30:02,+43.50294,+5.37163,607,0.1,0.0,-1.7,,,,,08:30:02,+4.6,+0.9,132.0,0.0,+376,+0.0,+0.01,+1.0,,+23,+31,0.0,29.89,+2399,,,324,,60.0,+0,,1,1,,,,,,,,,,,,,,,,,,,4,+26,0,0,30.5,0.0,0.0,0.0,11.8,10.3,21.8,12.3,,-2.4,2401.0,2379.6,,,,,,,,,,,,,,,+26.0,+12,+7,+0.0,+4.998,+0.000,+0.000,+25.3,+11.8,+10.3,+3.6,+26.2,+0,,,,
39.81,1,4,2018-07-27 08:30:02,+43.50294,+5.37163,607,0.1,0.0,-1.7,,,,,08:30:02,+4.6,+0.9,132.0,0.0,+376,+0.0,+0.01,+1.0,,+18,+31,0.0,29.89,+2399,,,324,,60.0,+0,,1,1,,,,,,,,,,,,,,,,,,,4,+26,0,0,30.5,0.0,0.0,0.0,11.8,10.3,21.8,12.3,,-2.3,2401.0,2379.6,,,,,,,,,,,,,,,+26.0,+12,+7,+0.0,+4.998,+0.000,+0.000,+25.3,+11.8,+10.3,+3.6,+26.2,+0,,,,
40.06,1,4,2018-07-27 08:30:02,+43.50294,+5.37165,600,0.1,0.0,-1.7,,,,,08:30:02,+4.6,+0.9,132.1,0.0,+376,+0.0,+0.01,+1.0,,+24,+31,0.0,29.89,+2399,,,324,,60.0,+0,,1,1,,,,,,,,,,,,,,,,,,,4,+26,0,0,30.5,0.0,0.0,0.0,11.8,10.2,21.8,12.3,,-2.3,2401.0,2379.6,,,,,,,,,,,,,,,+26.0,+12,+6,+0.0,+4.998,+0.000,+0.000,+25.3,+11.8,+10.2,+3.6,+26.2,+0,,,,
40.31,1,4,2018-07-27 08:30:03,+43.50294,+5.37168,595,0.1,0.0,-1.7,,,,,08:30:02,+4.6,+0.9,132.1,0.0,+376,+0.0,+0.01,+1.0,,+28,+31,0.0,29.89,+2400,,,324,,60.0,+0,,1,1,,,,,,,,,,,,,,,,,,,4,+26,0,0,30.5,0.0,0.0,0.0,11.8,10.2,21.8,12.3,,-2.3,2401.0,2379.6,,,,,,,,,,,,,,,+26.0,+12,+6,+0.0,+4.998,+0.000,+0.000,+25.3,+11.8,+10.2,+3.6,+26.2,+0,,,,
40.56,1,4,2018-07-27 08:30:03,+43.50294,+5.37168,594,0.1,0.0,-1.7,,,,,08:30:03,+4.6,+0.9,132.1,0.0,+376,+0.0,+0.01,+1.0,,+35,+31,0.0,29.89,+2400,,,324,,60.0,+0,,1,1,,,,,,,,,,,,,,,,,,,4,+26,0,0,30.5,0.0,0.0,0.0,11.8,10.2,21.8,12.3,,-2.4,2401.0,2379.6,,,,,,,,,,,,,,,+26.0,+12,+6,+0.0,+4.998,+0.000,+0.000,+25.3,+11.8,+10.2,+3.6,+26.2,+0,,,,
40.81,1,4,2018-07-27 08:30:03,+43.50294,+5.37170,589,0.1,0.0,-1.7,,,,,08:30:03,+4.6,+0.9,132.1,0.0,+376,+0.0,+0.01,+1.0,,+33,+31,0.0,29.89,+2400,,,324,,60.0,+0,,1,1,,,,,,,,,,,,,,,,,,,4,+26,0,0,30.5,0.0,0.0,0.0,11.8,10.2,21.8,12.3,,-2.3,2401.0,2379.6,,,,,,,,,,,,,,,+26.0,+12,+6,+0.0,+4.998,+0.000,+0.000,+25.3,+11.8,+10.2,+3.6,+26.2,+0,,,,
41.06,1,4,2018-07-27 08:30:03,+43.50293,+5.37170,590,0.1,0.0,-1.7,,,,,08:30:03,+4.6,+0.9,132.1,0.0,+376,+0.0,+0.01,+1.0,,+37,+31,0.0,29.89,+2400,,,324,,60.0,+0,,1,1,,,,,,,,,,,,,,,,,,,4,+26,0,0,30.5,0.0,0.0,0.0,11.8,10.3,21.8,12.3,,-2.3,2401.0,2379.6,,,,,,,,,,,,,,,+26.0,+12,+6,+0.0,+4.998,+0.000,+0.000,+25.3,+11.8,+10.3,+3.6,+26.2,+0,,,,
41.31,1,5,2018-07-27 08:30:04,+43.50293,+5.37176,572,0.1,0.0,-1.7,,,,,08:30:03,+4.6,+0.9,132.0,0.0,+376,+0.0,+0.01,+1.0,,+22,+31,0.0,29.89,+2400,,,324,,60.0,+0,,1,1,,,,,,,,,,,,,,,,,,,4,+26,0,0,30.5,0.0,0.0,0.0,11.8,10.3,21.8,12.3,,-2.3,2401.0,2379.6,,,,,,,,,,,,,,,+26.0,+12,+6,+0.0,+4.998,+0.000,+0.000,+25.3,+11.8,+10.3,+3.7,+26.2,+0,,,,
41.56,1,5,2018-07-27 08:30:04,+43.50293,+5.37178,563,0.1,0.0,-1.7,,,,,08:30:04,+4.7,+0.9,132.1,0.0,+376,+0.0,+0.01,+1.0,,+31,+31,0.0,29.89,+2400,,,324,,60.0,+0,,1,1,,,,,,,,,,,,,,,,,,,4,+26,0,0,30.5,0.0,0.0,0.0,11.8,10.3,21.8,12.3,,-2.3,2401.0,2379.6,,,,,,,,,,,,,,,+26.0,+12,+6,+0.0,+4.998,+0.000,+0.000,+25.3,+11.8,+10.3,+3.7,+26.2,+0,,,,
41.81,1,5,2018-07-27 08:30:04,+43.50294,+5.37179,560,0.1,0.0,-1.7,,,,,08:30:04,+4.7,+0.9,132.0,0.0,+376,+0.0,+0.01,+1.0,,+37,+31,0.0,29.89,+2400,,,324,,60.0,+0,,1,1,,,,,,,,,,,,,,,,,,,4,+26,0,0,30.5,0.0,0.0,0.0,11.8,10.3,21.8,12.3,,-2.4,2401.0,2379.6,,,,,,,,,,,,,,,+26.0,+12,+6,+0.0,+4.998,+0.000,+0.000,+25.3,+11.8,+10.3,+3.7,+26.2,+0,,,,
42.06,1,5,2018-07-27 08:30:04,+43.50294,+5.37182,551,0.1,0.0,-1.7,,,,,08:30:04,+4.6,+0.9,132.0,0.0,+376,+0.0,+0.01,+1.0,,+29,+31,0.0,29.89,+2400,,,324,,60.0,+0,,1,1,,,,,,,,,,,,,,,,,,,4,+26,0,0,30.5,0.0,0.0,0.0,11.8,10.3,21.8,12.3,,-2.3,2401.0,2379.6,,,,,,,,,,,,,,,+26.0,+12,+6,+0.0,+4.998,+0.000,+0.000,+25.3,+11.8,+10.3,+3.7,+26.2,+0,,,,
42.31,1,5,2018-07-27 08:30:05,+43.50295,+5.37186,534,0.1,0.0,-1.7,,,,,08:30:04,+4.6,+0.9,132.1,0.0,+376,+0.0,+0.01,+1.0,,+22,+31,0.0,29.89,+2400,,,324,,60.0,+0,,1,1,,,,,,,,,,,,,,,,,,,4,+26,0,0,30.5,0.0,0.0,0.0,11.8,10.3,21.8,12.3,,-2.3,2401.0,2379.6,,,,,,,,,,,,,,,+26.0,+12,+7,+0.0,+4.998,+0.000,+0.000,+25.3,+11.8,+10.3,+3.7,+26.2,+0,,,,
42.56,1,5,2018-07-27 08:30:05,+43.50296,+5.37186,534,0.1,0.0,-1.7,,,,,08:30:05,+4.6,+0.9,132.1,0.0,+376,+0.0,+0.01,+1.0,,+19,+31,0.0,29.89,+2400,,,324,,60.0,+0,,1,1,,,,,,,,,,,,,,,,,,,4,+26,0,0,30.5,0.0,0.0,0.0,11.8,10.4,21.8,12.3,,-2.3,2401.0,2379.6,,,,,,,,,,,,,,,+26.0,+12,+6,+0.0,+4.998,+0.000,+0.000,+25.3,+11.8,+10.4,+3.6,+26.2,+0,,,,
42.81,1,5,2018-07-27 08:30:05,+43.50296,+5.37186,534,0.1,0.0,-1.7,,,,,08:30:05,+4.6,+0.9,132.1,0.0,+376,+0.0,+0.01,+1.0,,+21,+31,0.0,29.89,+2400,,,324,,60.0,+0,,1,1,,,,,,,,,,,,,,,,,,,4,+26,0,0,30.5,0.0,0.0,0.0,11.8,10.4,21.8,12.3,,-2.4,2401.0,2379.6,,,,,,,,,,,,,,,+26.0,+12,+6,+0.0,+4.998,+0.000,+0.000,+25.3,+11.8,+10.4,+3.6,+26.2,+0,,,,
43.06,1,5,2018-07-27 08:30:05,+43.50296,+5.37186,534,0.1,0.0,-1.7,,,,,08:30:05,+4.6,+0.9,132.1,0.0,+376,+0.1,+0.01,+1.0,,+21,+31,0.0,29.89,+2400,,,324,,60.0,+0,,1,1,,,,,,,,,,,,,,,,,,,4,+26,0,0,30.5,0.0,0.0,0.0,11.8,10.4,21.8,12.2,,-2.4,2401.0,2379.6,,,,,,,,,,,,,,,+26.0,+12,+6,+0.0,+4.998,+0.000,+0.000,+25.3,+11.8,+10.4,+3.7,+26.2,+0,,,,
43.31,1,5,2018-07-27 08:30:06,+43.50296,+5.37188,528,0.1,0.0,-1.7,,,,,08:30:05,+4.6,+0.9,132.1,0.0,+376,+0.1,+0.01,+1.0,,+20,+31,0.0,29.89,+2400,,,324,,60.0,+0,,1,1,,,,,,,,,,,,,,,,,,,4,+26,0,0,30.5,0.0,0.0,0.0,11.8,10.4,21.8,12.2,,-2.3,2401.0,2379.6,,,,,,,,,,,,,,,+26.0,+12,+6,+0.0,+4.998,+0.000,+0.000,+25.3,+11.8,+10.4,+3.7,+26.2,+0,,,,
43.56,1,5,2018-07-27 08:30:06,+43.50295,+5.37188,529,0.1,0.0,-1.7,,,,,08:30:06,+4.6,+0.9,132.1,0.0,+376,+0.1,+0.01,+1.0,,+14,+31,0.0,29.89,+2400,,,324,,60.0,+0,,1,1,,,,,,,,,,,,,,,,,,,4,+26,0,0,30.5,0.0,0.0,0.0,11.8,10.4,21.8,12.2,,-2.3,2401.0,2379.6,,,,,,,,,,,,,,,+26.0,+12,+7,+0.0,+4.998,+0.000,+0.000,+25.3,+11.8,+10.4,+3.7,+26.2,+0,,,,
43.81,1,5,2018-07-27 08:30:06,+43.50294,+5.37188,530,0.1,0.0,-1.7,,,,,08:30:06,+4.6,+0.9,132.1,0.0,+376,+0.1,+0.01,+1.0,,+5,+31,0.0,29.89,+2400,,,324,,60.0,+0,,1,1,,,,,,,,,,,,,,,,,,,4,+26,0,0,30.5,0.0,0.0,0.0,11.8,10.4,21.8,12.2,,-2.3,2401.0,2379.6,,,,,,,,,,,,,,,+26.0,+12,+7,+0.0,+4.998,+0.000,+0.000,+25.3,+11.8,+10.4,+3.6,+26.2,+0,,,,
44.06,1,5,2018-07-27 08:30:06,+43.50294,+5.37189,529,0.1,0.0,-1.7,,,,,08:30:06,+4.6,+0.9,132.1,0.0,+376,+0.1,+0.01,+1.0,,+11,+31,0.0,29.89,+2400,,,324,,60.0,+0,,1,1,,,,,,,,,,,,,,,,,,,4,+26,0,0,30.5,0.0,0.0,0.0,11.8,10.4,21.8,12.2,,-2.4,2401.0,2379.6,,,,,,,,,,,,,,,+26.0,+12,+7,+0.0,+4.998,+0.000,+0.000,+25.3,+11.8,+10.4,+3.6,+26.2,+0,,,,
44.31,1,5,2018-07-27 08:30:07,+43.50294,+5.37190,526,0.2,0.0,-1.7,,,,,08:30:06,+4.6,+0.9,132.1,0.0,+376,+0.1,+0.01,+1.0,,-3,+31,0.0,29.89,+2400,,,324,,60.0,+0,,1,1,,,,,,,,,,,,,,,,,,,4,+26,0,0,30.5,0.0,0.0,0.0,11.8,10.4,21.8,12.2,,-2.3,2401.0,2379.6,,,,,,,,,,,,,,,+26.0,+12,+6,+0.0,+4.998,+0.000,+0.000,+25.3,+11.8,+10.4,+3.6,+26.2,+0,,,,
44.56,1,5,2018-07-27 08:30:07,+43.50294,+5.37191,525,0.2,0.0,-1.7,,,,,08:30:07,+4.6,+0.9,132.1,0.0,+376,+0.0,+0.01,+1.0,,-4,+31,0.0,29.89,+2400,,,324,,60.0,+0,,1,1,,,,,,,,,,,,,,,,,,,4,+26,0,0,30.5,0.0,0.0,0.0,11.8,10.4,21.8,12.2,,-2.3,2401.0,2379.6,,,,,,,,,,,,,,,+26.0,+12,+6,+0.0,+4.998,+0.000,+0.000,+25.3,+11.8,+10.4,+3.6,+26.2,+0,,,,
44.81,1,5,2018-07-27 08:30:07,+43.50294,+5.37191,525,0.2,0.0,-1.7,,,,,08:30:07,+4.6,+0.9,132.1,0.0,+376,+0.0,+0.01,+1.0,,-4,+31,0.0,29.89,+2400,,,324,,60.0,+0,,1,1,,,,,,,,,,,,,,,,,,,4,+26,0,0,30.5,0.0,0.0,0.0,11.8,10.4,21.8,12.2,,-2.3,2401.0,2379.6,,,,,,,,,,,,,,,+26.0,+12,+7,+0.0,+4.998,+0.000,+0.000,+25.3,+11.8,+10.4,+3.7,+26.2,+0,,,,
45.06,1,5,2018-07-27 08:30:07,+43.50294,+5.37191,526,0.2,0.0,-1.7,,,,,08:30:07,+4.6,+0.9,132.1,0.0,+376,+0.0,+0.01,+1.0,,-4,+31,0.0,29.89,+2400,,,324,,60.0,+0,,1,1,,,,,,,,,,,,,,,,,,,4,+26,0,0,30.5,0.0,0.0,0.0,11.8,10.4,21.8,12.3,,-2.3,2401.0,2379.6,,,,,,,,,,,,,,,+26.0,+12,+7,+0.0,+4.998,+0.000,+0.000,+25.3,+11.8,+10.4,+3.6,+26.2,+0,,,,
45.31,1,5,2018-07-27 08:30:08,+43.50294,+5.37190,528,0.2,0.0,-1.7,,,,,08:30:07,+4.6,+0.9,132.1,0.0,+376,+0.0,+0.01,+1.0,,+4,+31,0.0,29.89,+2400,,,324,,60.0,+0,,1,1,,,,,,,,,,,,,,,,,,,4,+26,0,0,30.5,0.0,0.0,0.0,11.8,10.4,21.8,12.3,,-2.4,2401.0,2379.6,,,,,,,,,,,,,,,+26.0,+12,+7,+0.0,+4.998,+0.000,+0.000,+25.3,+11.8,+10.4,+3.6,+26.2,+0,,,,
45.56,1,5,2018-07-27 08:30:08,+43.50294,+5.37191,526,0.2,0.0,-1.7,,,,,08:30:08,+4.6,+0.9,132.1,0.0,+376,+0.0,+0.01,+1.0,,+0,+31,0.0,29.89,+2400,,,324,,60.0,+0,,1,1,,,,,,,,,,,,,,,,,,,4,+26,0,0,30.5,0.0,0.0,0.0,11.8,10.5,21.8,12.3,,-2.3,2401.0,2379.6,,,,,,,,,,,,,,,+26.0,+12,+6,+0.0,+4.998,+0.000,+0.000,+25.3,+11.8,+10.5,+3.6,+26.2,+0,,,,
45.81,1,5,2018-07-27 08:30:08,+43.50294,+5.37191,525,0.1,0.0,-1.7,,,,,08:30:08,+4.6,+0.9,132.1,0.0,+376,+0.0,+0.01,+1.0,,-13,+31,0.0,29.89,+2400,,,324,,60.0,+0,,1,1,,,,,,,,,,,,,,,,,,,4,+26,0,0,30.5,0.0,0.0,0.0,11.8,10.5,21.8,12.3,,-2.3,2401.0,2379.6,,,,,,,,,,,,,,,+26.0,+12,+6,+0.0,+4.998,+0.000,+0.000,+25.3,+11.8,+10.5,+3.6,+26.2,+0,,,,
46.06,1,5,2018-07-27 08:30:08,+43.50294,+5.37191,525,0.1,0.0,-1.7,,,,,08:30:08,+4.7,+0.9,132.1,0.0,+376,+0.0,+0.01,+1.0,,+8,+31,0.0,29.89,+2400,,,324,,60.0,+0,,1,1,,,,,,,,,,,,,,,,,,,4,+26,0,0,30.5,0.0,0.0,0.0,11.8,10.5,21.8,12.3,,-2.3,2401.0,2379.6,,,,,,,,,,,,,,,+26.0,+12,+7,+0.0,+4.998,+0.000,+0.000,+25.3,+11.8,+10.5,+3.6,+26.2,+0,,,,
46.31,1,5,2018-07-27 08:30:09,+43.50294,+5.37192,520,0.1,0.0,-1.7,,,,,08:30:08,+4.7,+0.9,132.1,0.0,+376,+0.1,+0.01,+1.0,,-12,+31,0.0,29.89,+2400,,,324,,60.0,+0,,1,1,,,,,,,,,,,,,,,,,,,4,+26,0,0,30.5,0.0,0.0,0.0,11.8,10.5,21.8,12.3,,-2.3,2401.0,2379.6,,,,,,,,,,,,,,,+26.0,+12,+6,+0.0,+4.998,+0.000,+0.000,+25.3,+11.8,+10.5,+3.6,+26.2,+0,,,,
46.56,1,5,2018-07-27 08:30:09,+43.50294,+5.37193,517,0.1,0.0,-1.7,,,,,08:30:09,+4.7,+0.9,132.1,0.0,+376,+0.0,+0.01,+1.0,,-7,+31,0.0,29.89,+2400,,,324,,60.0,+0,,1,1,,,,,,,,,,,,,,,,,,,4,+26,0,0,30.5,0.0,0.0,0.0,11.8,10.5,21.8,12.3,,-2.4,2401.0,2379.6,,,,,,,,,,,,,,,+26.0,+12,+6,+0.0,+4.998,+0.000,+0.000,+25.3,+11.8,+10.5,+3.7,+26.2,+0,,,,
46.81,1,5,2018-07-27 08:30:09,+43.50295,+5.37193,516,0.1,0.0,-1.7,,,,,08:30:09,+4.7,+0.9,132.1,0.0,+376,+0.1,+0.01,+1.0,,-30,+31,0.0,29.89,+2400,,,324,,60.0,+0,,1,1,,,,,,,,,,,,,,,,,,,4,+26,0,0,30.5,0.0,0.0,0.0,11.8,10.5,21.8,12.3,,-2.3,2401.0,2379.6,,,,,,,,,,,,,,,+26.0,+12,+6,+0.0,+4.998,+0.000,+0.000,+25.3,+11.8,+10.5,+3.7,+26.2,+0,,,,
47.06,1,5,2018-07-27 08:30:09,+43.50295,+5.37193,517,0.1,0.0,-1.7,,,,,08:30:09,+4.7,+0.9,132.1,0.0,+376,+0.1,+0.01,+1.0,,-17,+31,0.0,29.89,+2400,,,324,,60.0,+0,,1,1,,,,,,,,,,,,,,,,,,,4,+26,0,0,30.6,0.0,0.0,0.0,11.8,10.5,21.8,12.3,,-2.3,2401.0,2379.6,,,,,,,,,,,,,,,+26.0,+12,+6,+0.0,+4.998,+0.000,+0.000,+25.3,+11.8,+10.5,+3.7,+26.2,+0,,,,
47.31,1,5,2018-07-27 08:30:10,+43.50294,+5.37193,517,0.0,0.0,-1.7,,,,,08:30:09,+4.7,+0.9,132.1,0.0,+376,+0.1,+0.01,+1.0,,-58,+31,0.0,29.89,+2400,,,324,,60.0,+0,,1,1,,,,,,,,,,,,,,,,,,,4,+26,0,0,30.6,0.0,0.0,0.0,11.8,10.5,21.8,12.3,,-2.3,2401.0,2379.6,,,,,,,,,,,,,,,+26.0,+12,+7,+0.0,+4.998,+0.000,+0.000,+25.3,+11.8,+10.5,+3.7,+26.2,+0,,,,
47.56,1,5,2018-07-27 08:30:10,+43.50294,+5.37194,516,0.0,0.0,-1.7,,,,,08:30:10,+4.7,+0.8,132.1,0.0,+376,+0.1,+0.01,+1.0,,-36,+31,0.0,29.89,+2400,,,324,,60.0,+0,,1,1,,,,,,,,,,,,,,,,,,,4,+26,0,0,30.6,0.0,0.0,0.0,11.8,10.5,21.8,12.3,,-2.3,2401.0,2379.6,,,,,,,,,,,,,,,+26.1,+12,+7,+0.0,+4.998,+0.000,+0.000,+25.3,+11.8,+10.5,+3.7,+26.2,+0,,,,
47.81,1,5,2018-07-27 08:30:10,+43.50294,+5.37194,516,0.1,0.0,-1.7,,,,,08:30:10,+4.7,+0.8,132.1,0.0,+376,+0.0,+0.01,+1.0,,-64,+31,0.0,29.89,+2400,,,324,,60.0,+0,,1,1,,,,,,,,,,,,,,,,,,,4,+26,0,0,30.6,0.0,0.0,0.0,11.8,10.5,21.8,12.3,,-2.4,2401.0,2379.6,,,,,,,,,,,,,,,+26.0,+12,+6,+0.0,+4.998,+0.000,+0.000,+25.3,+11.8,+10.5,+3.7,+26.2,+0,,,,
48.06,1,5,2018-07-27 08:30:10,+43.50294,+5.37194,516,0.1,0.0,-1.7,,,,,08:30:10,+4.7,+0.8,132.1,0.0,+376,+0.1,+0.01,+1.0,,-41,+31,0.0,29.89,+2400,,,324,,60.0,+0,,1,1,,,,,,,,,,,,,,,,,,,4,+26,0,0,30.6,0.0,0.0,0.0,11.8,10.5,21.8,12.3,,-2.3,2401.0,2379.6,,,,,,,,,,,,,,,+26.0,+12,+6,+0.0,+4.998,+0.000,+0.000,+25.3,+11.8,+10.5,+3.7,+26.2,+0,,,,
48.31,1,5,2018-07-27 08:30:11,+43.50294,+5.37194,516,0.1,0.0,-1.7,,,,,08:30:10,+4.7,+0.8,132.1,0.0,+376,+0.0,+0.01,+1.0,,-72,+31,0.0,29.89,+2400,,,324,,60.0,+0,,1,1,,,,,,,,,,,,,,,,,,,4,+26,0,0,30.6,0.0,0.0,0.0,11.8,10.5,21.8,12.3,,-2.3,2401.0,2379.6,,,,,,,,,,,,,,,+26.0,+12,+7,+0.0,+4.998,+0.000,+0.000,+25.3,+11.8,+10.5,+3.7,+26.2,+0,,,,
48.56,1,5,2018-07-27 08:30:11,+43.50294,+5.37194,516,0.1,0.0,-1.7,,,,,08:30:11,+4.7,+0.8,132.1,0.0,+376,+0.0,+0.01,+1.0,,-75,+31,0.0,29.89,+2400,,,324,,60.0,+0,,1,1,,,,,,,,,,,,,,,,,,,4,+26,0,0,30.6,0.0,0.0,0.0,11.8,10.6,21.8,12.3,,-2.3,2401.0,2379.6,,,,,,,,,,,,,,,+26.0,+12,+7,+0.0,+4.998,+0.000,+0.000,+25.3,+11.8,+10.6,+3.6,+26.2,+0,,,,
48.81,1,5,2018-07-27 08:30:11,+43.50294,+5.37195,515,0.1,0.0,-1.7,,,,,08:30:11,+4.7,+0.8,132.1,0.0,+375,+0.0,+0.01,+1.0,,-90,+31,0.0,29.89,+2400,,,324,,60.0,+0,,1,1,,,,,,,,,,,,,,,,,,,4,+26,0,0,30.6,0.0,0.0,0.0,11.8,10.6,21.8,12.3,,-2.4,2401.0,2379.6,,,,,,,,,,,,,,,+26.1,+12,+6,+0.0,+4.998,+0.000,+0.000,+25.3,+11.8,+10.6,+3.6,+26.2,+0,,,,
49.06,1,5,2018-07-27 08:30:11,+43.50294,+5.37195,514,0.1,0.0,-1.7,,,,,08:30:11,+4.7,+0.8,132.0,0.0,+374,+0.0,+0.01,+1.0,,-91,+31,0.0,29.89,+2400,,,324,,60.0,+0,,1,1,,,,,,,,,,,,,,,,,,,4,+26,0,0,30.5,0.0,0.0,0.0,11.8,10.7,21.8,12.3,,-2.3,2401.0,2379.6,,,,,,,,,,,,,,,+26.0,+12,+7,+0.0,+4.998,+0.000,+0.000,+25.3,+11.8,+10.7,+3.6,+26.2,+0,,,,
49.31,1,5,2018-07-27 08:30:12,+43.50294,+5.37195,515,0.0,0.0,-1.7,,,,,08:30:11,+4.7,+0.8,132.0,0.0,+374,+0.0,+0.01,+1.0,,-95,+31,0.0,29.89,+2398,,,324,,60.0,+0,,1,1,,,,,,,,,,,,,,,,,,,4,+26,0,0,30.5,0.0,0.0,0.0,11.8,10.7,21.8,12.3,,-2.3,2401.0,2379.6,,,,,,,,,,,,,,,+26.0,+12,+7,+0.0,+4.998,+0.000,+0.000,+25.3,+11.8,+10.7,+3.7,+26.2,+0,,,,
49.56,1,5,2018-07-27 08:30:12,+43.50294,+5.37194,515,0.0,0.0,-1.7,,,,,08:30:12,+4.7,+0.9,132.0,0.0,+374,+0.0,+0.01,+1.0,,-86,+31,0.0,29.89,+2398,,,324,,60.0,+0,,1,1,,,,,,,,,,,,,,,,,,,4,+26,0,0,30.5,0.0,0.0,0.0,11.8,10.8,21.8,12.3,,-2.3,2401.0,2379.6,,,,,,,,,,,,,,,+26.0,+12,+7,+0.0,+4.998,+0.000,+0.000,+25.3,+11.8,+10.8,+3.7,+26.2,+0,,,,
49.81,1,5,2018-07-27 08:30:12,+43.50294,+5.37194,516,0.0,0.0,-1.7,,,,,08:30:12,+4.7,+0.9,132.0,0.0,+373,+0.0,+0.01,+1.0,,-88,+31,0.0,29.89,+2398,,,324,,60.0,+0,,1,1,,,,,,,,,,,,,,,,,,,4,+26,0,0,30.5,0.0,0.0,0.0,11.7,10.8,21.8,12.3,,-2.3,2401.0,2379.6,,,,,,,,,,,,,,,+26.1,+12,+7,+0.0,+4.998,+0.000,+0.000,+25.3,+11.7,+10.8,+3.6,+26.2,+0,,,,
50.06,1,5,2018-07-27 08:30:12,+43.50294,+5.37194,516,0.0,0.0,-1.7,,,,,08:30:12,+4.7,+0.9,132.0,0.0,+373,+0.0,+0.01,+1.0,,-75,+31,0.0,29.89,+2398,,,324,,60.0,+0,,1,1,,,,,,,,,,,,,,,,,,,4,+26,0,0,30.5,0.0,0.0,0.0,11.7,10.8,21.8,12.2,,-2.4,2401.0,2379.6,,,,,,,,,,,,,,,+26.0,+12,+7,+0.0,+4.998,+0.000,+0.000,+25.3,+11.7,+10.8,+3.6,+26.2,+0,,,,
50.31,1,5,2018-07-27 08:30:13,+43.50294,+5.37194,517,0.1,0.0,-1.7,,,,,08:30:12,+4.7,+0.9,132.0,0.0,+373,+0.0,+0.01,+1.0,,-72,+31,0.0,29.89,+2398,,,324,,60.0,+0,,1,1,,,,,,,,,,,,,,,,,,,4,+26,0,0,30.5,0.0,0.0,0.0,11.7,10.8,21.8,12.2,,-2.3,2401.0,2379.6,,,,,,,,,,,,,,,+26.0,+12,+7,+0.0,+4.998,+0.000,+0.000,+25.3,+11.7,+10.8,+3.6,+26.2,+0,,,,
50.56,1,5,2018-07-27 08:30:13,+43.50294,+5.37194,517,0.1,0.0,-1.7,,,,,08:30:13,+4.7,+0.9,132.0,0.0,+373,+0.0,+0.01,+1.0,,-50,+31,0.0,29.89,+2398,,,324,,60.0,+0,,1,1,,,,,,,,,,,,,,,,,,,4,+26,0,0,30.5,0.0,0.0,0.0,11.7,10.9,21.8,12.2,,-2.3,2401.0,2379.6,,,,,,,,,,,,,,,+26.0,+12,+7,+0.0,+4.998,+0.000,+0.000,+25.3,+11.7,+10.9,+3.7,+26.2,+0,,,,
50.81,1,5,2018-07-27 08:30:13,+43.50294,+5.37194,517,0.1,0.0,-1.7,,,,,08:30:13,+4.7,+0.9,132.0,0.0,+373,+0.0,+0.01,+1.0,,-44,+31,0.0,29.89,+2398,,,324,,60.0,+0,,1,1,,,,,,,,,,,,,,,,,,,4,+26,0,0,30.5,0.0,0.0,0.0,11.7,10.9,21.8,12.2,,-2.3,2401.0,2379.6,,,,,,,,,,,,,,,+26.0,+12,+7,+0.0,+4.998,+0.000,+0.000,+25.3,+11.7,+10.9,+3.7,+26.2,+0,,,,
51.06,1,5,2018-07-27 08:30:13,+43.50294,+5.37194,517,0.2,0.0,-1.7,,,,,08:30:13,+4.7,+0.9,132.0,0.0,+373,+0.0,+0.01,+1.0,,-30,+31,0.0,29.89,+2398,,,324,,60.0,+0,,1,1,,,,,,,,,,,,,,,,,,,4,+26,0,0,30.5,0.0,0.0,0.0,11.7,10.9,21.8,12.3,,-2.3,2401.0,2379.6,,,,,,,,,,,,,,,+26.1,+12,+7,+0.0,+4.998,+0.000,+0.000,+25.3,+11.7,+10.9,+3.6,+26.2,+0,,,,
51.31,1,5,2018-07-27 08:30:14,+43.50293,+5.37194,517,0.2,0.0,-1.7,,,,,08:30:13,+4.7,+0.9,132.0,0.0,+373,+0.0,+0.01,+1.0,,-23,+31,0.0,29.89,+2398,,,324,,60.0,+0,,1,1,,,,,,,,,,,,,,,,,,,4,+26,0,0,30.5,0.0,0.0,0.0,11.7,10.9,21.8,12.3,,-2.4,2401.0,2379.6,,,,,,,,,,,,,,,+26.0,+12,+7,+0.0,+4.998,+0.000,+0.000,+25.3,+11.7,+10.9,+3.6,+26.2,+0,,,,
51.56,1,5,2018-07-27 08:30:14,+43.50293,+5.37194,518,0.1,0.0,-1.7,,,,,08:30:14,+4.7,+0.9,132.0,0.0,+373,+0.0,+0.01,+1.0,,-9,+31,0.0,29.89,+2398,,,324,,60.0,+0,,1,1,,,,,,,,,,,,,,,,,,,4,+26,0,0,30.5,0.0,0.0,0.0,11.7,10.9,21.8,12.3,,-2.3,2401.0,2379.6,,,,,,,,,,,,,,,+26.0,+12,+7,+0.0,+4.998,+0.000,+0.000,+25.3,+11.7,+10.9,+3.6,+26.2,+0,,,,
51.81,1,5,2018-07-27 08:30:14,+43.50293,+5.37194,519,0.1,0.0,-1.7,,,,,08:30:14,+4.7,+0.9,132.0,0.0,+373,+0.0,+0.01,+1.0,,-18,+31,0.0,29.89,+2398,,,324,,60.0,+0,,1,1,,,,,,,,,,,,,,,,,,,4,+26,0,0,30.5,0.0,0.0,0.0,11.6,10.9,21.8,12.3,,-2.3,2401.0,2379.6,,,,,,,,,,,,,,,+26.0,+12,+7,+0.0,+4.998,+0.000,+0.000,+25.3,+11.6,+10.9,+3.6,+26.2,+0,,,,
52.06,1,5,2018-07-27 08:30:14,+43.50293,+5.37194,520,0.1,0.0,-1.7,,,,,08:30:14,+4.7,+0.9,132.0,0.0,+373,+0.1,+0.01,+1.0,,-12,+31,0.0,29.89,+2398,,,324,,60.0,+0,,1,1,,,,,,,,,,,,,,,,,,,4,+26,0,0,30.5,0.0,0.0,0.0,11.6,10.9,21.8,12.3,,-2.3,2401.0,2379.6,,,,,,,,,,,,,,,+26.0,+12,+6,+0.0,+4.998,+0.000,+0.000,+25.3,+11.6,+10.9,+3.6,+26.2,+0,,,,
52.31,1,5,2018-07-27 08:30:15,+43.50293,+5.37193,522,0.1,0.0,-1.7,,,,,08:30:14,+4.7,+0.9,132.0,0.0,+373,+0.1,+0.01,+1.0,,-22,+31,0.0,29.89,+2397,,,324,,60.0,+0,,1,1,,,,,,,,,,,,,,,,,,,4,+26,0,0,30.5,0.0,0.0,0.0,11.6,10.9,21.8,12.3,,-2.3,2401.0,2379.6,,,,,,,,,,,,,,,+26.1,+12,+7,+0.0,+4.998,+0.000,+0.000,+25.3,+11.6,+10.9,+3.6,+26.2,+0,,,,
52.56,1,5,2018-07-27 08:30:15,+43.50293,+5.37193,523,0.1,0.0,-1.7,,,,,08:30:15,+4.7,+0.9,132.0,0.0,+373,+0.1,+0.01,+1.0,,-14,+31,0.0,29.89,+2397,,,324,,60.0,+0,,1,1,,,,,,,,,,,,,,,,,,,4,+26,0,0,30.5,0.0,0.0,0.0,11.6,10.9,21.8,12.3,,-2.4,2401.0,2379.6,,,,,,,,,,,,,,,+26.0,+12,+7,+0.0,+4.998,+0.000,+0.000,+25.3,+11.6,+10.9,+3.6,+26.2,+0,,,,
52.81,1,5,2018-07-27 08:30:15,+43.50293,+5.37193,523,0.0,0.0,-1.7,,,,,08:30:15,+4.7,+0.9,132.0,0.0,+373,+0.1,+0.01,+1.0,,-24,+31,0.0,29.89,+2397,,,324,,60.0,+0,,1,1,,,,,,,,,,,,,,,,,,,4,+26,0,0,30.5,0.0,0.0,0.0,11.6,11.0,21.8,12.3,,-2.3,2401.0,2379.6,,,,,,,,,,,,,,,+26.0,+12,+7,+0.0,+4.998,+0.000,+0.000,+25.3,+11.6,+11.0,+3.6,+26.2,+0,,,,
53.06,1,5,2018-07-27 08:30:15,+43.50293,+5.37193,524,0.0,0.0,-1.7,,,,,08:30:15,+4.8,+0.9,132.0,0.0,+373,+0.1,+0.01,+1.0,,-6,+31,0.0,29.89,+2397,,,324,,60.0,+0,,1,1,,,,,,,,,,,,,,,,,,,4,+26,0,0,30.5,0.0,0.0,0.0,11.6,11.0,21.8,12.3,,-2.3,2401.0,2379.6,,,,,,,,,,,,,,,+26.0,+12,+7,+0.0,+4.998,+0.000,+0.000,+25.3,+11.6,+11.0,+3.6,+26.2,+0,,,,
53.31,1,5,2018-07-27 08:30:16,+43.50293,+5.37193,525,0.1,0.0,-1.7,,,,,08:30:15,+4.8,+0.9,132.0,0.0,+373,+0.1,+0.01,+1.0,,-38,+31,0.0,29.89,+2397,,,324,,60.0,+0,,1,1,,,,,,,,,,,,,,,,,,,4,+26,0,0,30.5,0.0,0.0,0.0,11.6,11.0,21.8,12.3,,-2.3,2401.0,2379.6,,,,,,,,,,,,,,,+26.1,+12,+7,+0.0,+4.998,+0.000,+0.000,+25.3,+11.6,+11.0,+3.6,+26.2,+0,,,,
53.56,1,5,2018-07-27 08:30:16,+43.50293,+5.37193,525,0.1,0.0,-1.7,,,,,08:30:16,+4.8,+0.9,132.0,0.0,+373,+0.0,+0.01,+1.0,,-17,+31,0.0,29.89,+2397,,,324,,60.0,+0,,1,1,,,,,,,,,,,,,,,,,,,4,+26,0,0,30.5,0.0,0.0,0.0,11.6,11.0,21.8,12.3,,-2.4,2401.0,2379.6,,,,,,,,,,,,,,,+26.1,+12,+7,+0.0,+4.998,+0.000,+0.000,+25.3,+11.6,+11.0,+3.6,+26.2,+0,,,,
53.81,1,5,2018-07-27 08:30:16,+43.50293,+5.37193,524,0.2,0.0,-1.7,,,,,08:30:16,+4.8,+0.9,132.0,0.0,+373,+0.1,+0.01,+1.0,,-58,+31,0.0,29.89,+2397,,,324,,60.0,+0,,1,1,,,,,,,,,,,,,,,,,,,4,+26,0,0,30.5,0.0,0.0,0.0,11.6,11.0,21.8,12.3,,-2.3,2401.0,2379.6,,,,,,,,,,,,,,,+26.0,+12,+7,+0.0,+4.998,+0.000,+0.000,+25.3,+11.6,+11.0,+3.6,+26.2,+0,,,,
54.06,1,5,2018-07-27 08:30:16,+43.50293,+5.37193,523,0.2,0.0,-1.7,,,,,08:30:16,+4.8,+0.9,132.0,0.0,+373,+0.0,+0.01,+1.0,,-42,+31,0.0,29.89,+2397,,,324,,60.0,+0,,1,1,,,,,,,,,,,,,,,,,,,4,+26,0,0,30.5,0.0,0.0,0.0,11.6,11.0,21.8,12.3,,-2.3,2401.0,2379.6,,,,,,,,,,,,,,,+26.0,+12,+7,+0.0,+4.998,+0.000,+0.000,+25.3,+11.6,+11.0,+3.6,+26.2,+0,,,,
54.31,1,5,2018-07-27 08:30:17,+43.50293,+5.37193,521,0.2,0.0,-1.7,,,,,08:30:16,+4.8,+0.9,132.0,0.0,+372,+0.0,+0.01,+1.0,,-50,+31,0.0,29.89,+2397,,,324,,60.0,+0,,1,1,,,,,,,,,,,,,,,,,,,4,+26,0,0,30.5,0.0,0.0,0.0,11.6,11.0,21.8,12.3,,-2.3,2401.0,2379.6,,,,,,,,,,,,,,,+26.0,+12,+7,+0.0,+4.998,+0.000,+0.000,+25.3,+11.6,+11.0,+3.6,+26.2,+0,,,,
54.56,1,5,2018-07-27 08:30:17,+43.50294,+5.37193,520,0.2,0.0,-1.7,,,,,08:30:17,+4.8,+0.9,132.0,0.0,+372,+0.1,+0.01,+1.0,,-35,+31,0.0,29.89,+2397,,,324,,60.0,+0,,1,1,,,,,,,,,,,,,,,,,,,4,+26,0,0,30.5,0.0,0.0,0.0,11.5,10.9,21.8,12.3,,-2.3,2401.0,2379.6,,,,,,,,,,,,,,,+26.1,+12,+7,+0.0,+4.998,+0.000,+0.000,+25.3,+11.5,+10.9,+3.6,+26.2,+0,,,,
54.81,1,6,2018-07-27 08:30:17,+43.50294,+5.37193,519,0.2,0.0,-1.7,,,,,08:30:17,+4.8,+0.9,132.0,0.0,+372,+0.1,+0.01,+1.0,,-52,+31,0.0,29.89,+2397,,,324,,60.0,+0,,1,1,,,,,,,,,,,,,,,,,,,4,+26,0,0,30.5,0.0,0.0,0.0,11.5,10.8,21.8,12.3,,-2.4,2401.0,2379.6,,,,,,,,,,,,,,,+26.1,+12,+7,+0.0,+4.998,+0.000,+0.000,+25.3,+11.5,+10.8,+3.6,+26.2,+0,,,,
55.06,1,6,2018-07-27 08:30:17,+43.50294,+5.37193,518,0.2,0.0,-1.7,,,,,08:30:17,+4.8,+0.9,132.0,0.0,+372,+0.1,+0.01,+1.0,,-51,+31,0.0,29.89,+2397,,,324,,60.0,+0,,1,1,,,,,,,,,,,,,,,,,,,4,+26,0,0,30.5,0.0,0.0,0.0,11.5,10.7,21.8,12.3,,-2.3,2401.0,2379.6,,,,,,,,,,,,,,,+26.0,+12,+7,+0.0,+4.998,+0.000,+0.000,+25.3,+11.5,+10.7,+3.6,+26.2,+0,,,,
55.31,1,6,2018-07-27 08:30:18,+43.50294,+5.37192,517,0.2,0.0,-1.7,,,,,08:30:17,+4.8,+0.9,132.0,0.0,+370,+0.1,+0.01,+1.0,,-81,+31,0.0,29.89,+2393,,,324,,60.0,+0,,1,1,,,,,,,,,,,,,,,,,,,4,+26,0,0,30.5,0.0,0.0,0.0,11.4,10.6,21.8,12.3,,-2.3,2401.0,2379.6,,,,,,,,,,,,,,,+26.0,+12,+7,+0.0,+4.998,+0.000,+0.000,+25.3,+11.4,+10.6,+3.6,+26.2,+0,,,,
55.56,1,6,2018-07-27 08:30:18,+43.50294,+5.37192,516,0.2,0.0,-1.7,,,,,08:30:18,+4.8,+0.9,132.0,0.0,+370,+0.1,+0.01,+1.0,,-68,+31,0.0,29.89,+2394,,,324,,60.0,+0,,1,1,,,,,,,,,,,,,,,,,,,4,+26,0,0,30.5,0.0,0.0,0.0,11.4,10.6,21.8,12.3,,-2.3,2401.0,2379.6,,,,,,,,,,,,,,,+26.0,+12,+7,+0.0,+4.998,+0.000,+0.000,+25.3,+11.4,+10.6,+3.6,+26.2,+0,,,,
55.81,1,6,2018-07-27 08:30:18,+43.50294,+5.37192,515,0.1,0.0,-1.7,,,,,08:30:18,+4.8,+0.9,132.0,0.0,+369,+0.1,+0.01,+1.0,,-92,+31,0.0,29.89,+2394,,,324,,60.0,+0,,1,1,,,,,,,,,,,,,,,,,,,4,+26,0,0,30.5,0.0,0.0,0.0,11.4,10.5,21.8,12.3,,-2.3,2401.0,2379.6,,,,,,,,,,,,,,,+26.1,+12,+7,+0.0,+4.998,+0.000,+0.000,+25.3,+11.4,+10.5,+3.6,+26.2,+0,,,,
56.06,1,6,2018-07-27 08:30:18,+43.50295,+5.37192,515,0.1,0.0,-1.7,,,,,08:30:18,+4.8,+0.8,132.0,0.0,+369,+0.1,+0.01,+1.0,,-84,+31,0.0,29.89,+2394,,,324,,60.0,+0,,1,1,,,,,,,,,,,,,,,,,,,4,+26,0,0,30.5,0.0,0.0,0.0,11.4,10.5,21.8,12.2,,-2.4,2401.0,2379.6,,,,,,,,,,,,,,,+26.1,+12,+7,+0.0,+4.998,+0.000,+0.000,+25.3,+11.4,+10.5,+3.6,+26.2,+0,,,,
56.31,1,6,2018-07-27 08:30:19,+43.50295,+5.37192,514,0.1,0.0,-1.7,,,,,08:30:18,+4.8,+0.8,132.0,0.0,+368,+0.1,+0.01,+1.0,,-90,+31,0.0,29.89,+2394,,,324,,60.0,+0,,1,1,,,,,,,,,,,,,,,,,,,4,+26,0,0,30.5,0.0,0.0,0.0,11.4,10.4,21.8,12.2,,-2.3,2401.0,2379.6,,,,,,,,,,,,,,,+26.0,+12,+7,+0.0,+4.998,+0.000,+0.000,+25.3,+11.4,+10.4,+3.7,+26.2,+0,,,,
56.56,1,6,2018-07-27 08:30:19,+43.50295,+5.37192,513,0.1,0.0,-1.7,,,,,08:30:19,+4.8,+0.8,132.0,0.0,+368,+0.1,+0.01,+1.0,,-75,+31,0.0,29.89,+2394,,,324,,60.0,+0,,1,1,,,,,,,,,,,,,,,,,,,4,+26,0,0,30.5,0.0,0.0,0.0,11.4,10.4,21.8,12.2,,-2.3,2401.0,2379.6,,,,,,,,,,,,,,,+26.0,+12,+7,+0.0,+4.998,+0.000,+0.000,+25.3,+11.4,+10.4,+3.6,+26.2,+0,,,,
56.81,1,6,2018-07-27 08:30:19,+43.50296,+5.37192,512,0.1,0.0,-1.7,,,,,08:30:19,+4.8,+0.8,132.0,0.0,+368,+0.1,+0.01,+1.0,,-76,+31,0.0,29.89,+2394,,,324,,60.0,+0,,1,1,,,,,,,,,,,,,,,,,,,4,+26,0,0,30.5,0.0,0.0,0.0,11.4,10.3,21.8,12.2,,-2.3,2401.0,2379.6,,,,,,,,,,,,,,,+26.1,+12,+7,+0.0,+4.998,+0.000,+0.000,+25.3,+11.4,+10.3,+3.6,+26.2,+0,,,,
57.06,1,6,2018-07-27 08:30:19,+43.50296,+5.37192,512,0.1,0.0,-1.7,,,,,08:30:19,+4.8,+0.8,132.0,0.0,+368,+0.1,+0.01,+1.0,,-54,+31,0.0,29.89,+2394,,,324,,60.0,+0,,1,1,,,,,,,,,,,,,,,,,,,4,+26,0,0,30.5,0.0,0.0,0.0,11.4,10.3,21.8,12.3,,-2.3,2401.0,2379.6,,,,,,,,,,,,,,,+26.1,+12,+7,+0.0,+4.998,+0.000,+0.000,+25.3,+11.4,+10.3,+3.6,+26.2,+0,,,,
57.31,1,6,2018-07-27 08:30:20,+43.50296,+5.37192,510,0.1,0.0,-1.7,,,,,08:30:19,+4.8,+0.8,132.0,0.0,+368,+0.1,+0.01,+1.0,,-72,+31,0.0,29.89,+2394,,,324,,60.0,+0,,1,1,,,,,,,,,,,,,,,,,,,4,+26,0,0,30.5,0.0,0.0,0.0,11.4,10.3,21.8,12.3,,-2.4,2401.0,2379.6,,,,,,,,,,,,,,,+26.1,+12,+7,+0.0,+4.998,+0.000,+0.000,+25.3,+11.4,+10.3,+3.6,+26.2,+0,,,,
57.56,1,6,2018-07-27 08:30:20,+43.50296,+5.37192,509,0.1,0.0,-1.7,,,,,08:30:20,+4.8,+0.8,132.0,0.0,+368,+0.1,+0.01,+1.0,,-64,+31,0.0,29.89,+2394,,,324,,60.0,+0,,1,1,,,,,,,,,,,,,,,,,,,4,+26,0,0,30.5,0.0,0.0,0.0,11.3,10.2,21.8,12.3,,-2.3,2401.0,2379.6,,,,,,,,,,,,,,,+26.0,+12,+7,+0.0,+4.998,+0.000,+0.000,+25.3,+11.3,+10.2,+3.7,+26.2,+0,,,,
57.81,1,6,2018-07-27 08:30:20,+43.50296,+5.37192,509,0.1,0.0,-1.7,,,,,08:30:20,+4.8,+0.8,132.0,0.0,+367,+0.1,+0.01,+1.0,,-76,+31,0.0,29.89,+2394,,,324,,60.0,+0,,1,1,,,,,,,,,,,,,,,,,,,4,+26,0,0,30.5,0.0,0.0,0.0,11.3,10.2,21.8,12.3,,-2.3,2401.0,2379.6,,,,,,,,,,,,,,,+26.0,+12,+7,+0.0,+4.998,+0.000,+0.000,+25.3,+11.3,+10.2,+3.6,+26.2,+0,,,,
58.06,1,6,2018-07-27 08:30:20,+43.50296,+5.37192,508,0.1,0.0,-1.7,,,,,08:30:20,+4.8,+0.8,132.0,0.0,+367,+0.1,+0.01,+1.0,,-70,+31,0.0,29.89,+2394,,,324,,60.0,+0,,1,1,,,,,,,,,,,,,,,,,,,4,+26,0,0,30.5,0.0,0.0,0.0,11.3,10.2,21.8,12.3,,-2.3,2401.0,2379.6,,,,,,,,,,,,,,,+26.1,+12,+7,+0.0,+4.998,+0.000,+0.000,+25.3,+11.3,+10.2,+3.6,+26.2,+0,,,,
58.31,1,6,2018-07-27 08:30:21,+43.50297,+5.37192,507,0.1,0.0,-1.7,,,,,08:30:20,+4.8,+0.8,132.0,0.0,+367,+0.1,+0.01,+1.0,,-62,+31,0.0,29.89,+2394,,,324,,60.0,+0,,1,1,,,,,,,,,,,,,,,,,,,4,+26,0,0,30.5,0.0,0.0,0.0,11.3,10.2,21.8,12.3,,-2.3,2401.0,2379.6,,,,,,,,,,,,,,,+26.1,+12,+7,+0.0,+4.998,+0.000,+0.000,+25.3,+11.3,+10.2,+3.6,+26.2,+0,,,,
58.56,1,6,2018-07-27 08:30:21,+43.50297,+5.37192,506,0.1,0.0,-1.7,,,,,08:30:21,+4.8,+0.9,132.0,0.0,+367,+0.1,+0.01,+1.0,,-53,+31,0.0,29.89,+2399,,,324,,60.0,+0,,1,1,,,,,,,,,,,,,,,,,,,4,+26,0,0,30.5,0.0,0.0,0.0,11.3,10.2,21.8,12.3,,-2.4,2401.0,2379.6,,,,,,,,,,,,,,,+26.1,+12,+7,+0.0,+4.998,+0.000,+0.000,+25.3,+11.3,+10.2,+3.6,+26.2,+0,,,,
58.81,1,6,2018-07-27 08:30:21,+43.50297,+5.37192,504,0.1,0.0,-1.7,,,,,08:30:21,+4.8,+0.9,132.0,0.0,+367,+0.1,+0.01,+1.0,,-58,+31,0.0,29.89,+2399,,,324,,60.0,+0,,1,1,,,,,,,,,,,,,,,,,,,4,+26,0,0,30.5,0.0,0.0,0.0,11.3,10.1,21.8,12.3,,-2.3,2401.0,2379.6,,,,,,,,,,,,,,,+26.0,+12,+7,+0.0,+4.998,+0.000,+0.000,+25.3,+11.3,+10.1,+3.6,+26.2,+0,,,,
59.06,1,6,2018-07-27 08:30:21,+43.50297,+5.37192,504,0.1,0.0,-1.7,,,,,08:30:21,+4.8,+0.9,132.0,0.0,+367,+0.0,+0.01,+1.0,,-48,+31,0.0,29.89,+2398,,,324,,60.0,+0,,1,1,,,,,,,,,,,,,,,,,,,4,+26,0,0,30.5,0.0,0.0,0.0,11.3,10.1,21.8,12.3,,-2.3,2401.0,2379.6,,,,,,,,,,,,,,,+26.0,+12,+7,+0.0,+4.998,+0.000,+0.000,+25.3,+11.3,+10.1,+3.6,+26.2,+0,,,,
59.31,1,6,2018-07-27 08:30:22,+43.50298,+5.37192,503,0.1,0.0,-1.7,,,,,08:30:21,+4.8,+0.9,132.0,0.0,+366,+0.0,+0.01,+1.0,,-71,+31,0.0,29.89,+2397,,,324,,60.0,+0,,1,1,,,,,,,,,,,,,,,,,,,4,+26,0,0,30.5,0.0,0.0,0.0,11.3,10.1,21.8,12.3,,-2.3,2401.0,2379.6,,,,,,,,,,,,,,,+26.1,+12,+7,+0.0,+4.998,+0.000,+0.000,+25.3,+11.3,+10.1,+3.6,+26.2,+0,,,,
59.56,1,6,2018-07-27 08:30:22,+43.50298,+5.37192,503,0.1,0.0,-1.7,,,,,08:30:22,+4.8,+0.9,132.0,0.0,+366,+0.0,+0.01,+1.0,,-66,+31,0.0,29.89,+2397,,,324,,60.0,+0,,1,1,,,,,,,,,,,,,,,,,,,4,+26,0,0,30.5,0.0,0.0,0.0,11.3,10.1,21.8,12.3,,-2.4,2401.0,2379.6,,,,,,,,,,,,,,,+26.1,+12,+7,+0.0,+4.998,+0.000,+0.000,+25.3,+11.3,+10.1,+3.6,+26.2,+0,,,,
59.81,1,6,2018-07-27 08:30:22,+43.50298,+5.37192,502,0.1,0.0,-1.7,,,,,08:30:22,+4.8,+0.9,132.0,0.0,+365,+0.0,+0.01,+1.0,,-78,+31,0.0,29.89,+2397,,,324,,60.0,+0,,1,1,,,,,,,,,,,,,,,,,,,4,+26,0,0,30.5,0.0,0.0,0.0,11.3,10.1,21.8,12.3,,-2.3,2401.0,2379.6,,,,,,,,,,,,,,,+26.1,+12,+6,+0.0,+4.998,+0.000,+0.000,+25.3,+11.3,+10.1,+3.6,+26.2,+0,,,,
60.06,1,6,2018-07-27 08:30:22,+43.50298,+5.37192,501,0.1,0.0,-1.7,,,,,08:30:22,+4.8,+0.8,132.0,0.0,+365,+0.1,+0.01,+1.0,,-50,+31,0.0,29.89,+2396,,,324,,60.0,+0,,1,1,,,,,,,,,,,,,,,,,,,4,+26,0,0,30.5,0.0,0.0,0.0,11.3,10.1,21.8,12.3,,-2.3,2401.0,2379.6,,,,,,,,,,,,,,,+26.0,+12,+6,+0.0,+4.998,+0.000,+0.000,+25.3,+11.3,+10.1,+3.6,+26.2,+0,,,,
60.31,1,6,2018-07-27 08:30:23,+43.50298,+5.37192,500,0.1,0.0,-1.7,,,,,08:30:22,+4.8,+0.8,132.0,0.0,+364,+0.1,+0.01,+1.0,,-73,+31,0.0,29.89,+2396,,,324,,60.0,+0,,1,1,,,,,,,,,,,,,,,,,,,4,+26,0,0,30.5,0.0,0.0,0.0,11.3,10.1,21.8,12.3,,-2.3,2401.0,2379.6,,,,,,,,,,,,,,,+26.0,+12,+7,+0.0,+4.998,+0.000,+0.000,+25.3,+11.3,+10.1,+3.6,+26.2,+0,,,,
60.56,1,6,2018-07-27 08:30:23,+43.50298,+5.37191,499,0.1,0.0,-1.7,,,,,08:30:23,+4.7,+0.9,132.0,0.0,+364,+0.1,+0.01,+1.0,,-53,+31,0.0,29.89,+2396,,,324,,60.0,+0,,1,1,,,,,,,,,,,,,,,,,,,4,+26,0,0,30.5,0.0,0.0,0.0,11.3,10.1,21.8,12.3,,-2.3,2401.0,2379.6,,,,,,,,,,,,,,,+26.1,+12,+7,+0.0,+4.998,+0.000,+0.000,+25.3,+11.3,+10.1,+3.6,+26.2,+0,,,,
60.81,1,6,2018-07-27 08:30:23,+43.50298,+5.37191,499,0.1,0.0,-1.7,,,,,08:30:23,+4.7,+0.9,132.0,0.0,+364,+0.1,+0.01,+1.0,,-90,+31,0.0,29.89,+2396,,,324,,60.0,+0,,1,1,,,,,,,,,,,,,,,,,,,4,+26,0,0,30.5,0.0,0.0,0.0,11.3,10.1,21.8,12.3,,-2.4,2401.0,2379.6,,,,,,,,,,,,,,,+26.1,+12,+7,+0.0,+4.998,+0.000,+0.000,+25.3,+11.3,+10.1,+3.6,+26.2,+0,,,,
61.06,1,6,2018-07-27 08:30:23,+43.50299,+5.37192,498,0.1,0.0,-1.7,,,,,08:30:23,+4.7,+0.9,132.0,0.0,+364,+0.0,+0.01,+1.0,,-54,+31,0.0,29.89,+2396,,,324,,60.0,+0,,1,1,,,,,,,,,,,,,,,,,,,4,+26,0,0,30.5,0.0,0.0,0.0,11.2,10.1,21.8,12.3,,-2.3,2401.0,2379.6,,,,,,,,,,,,,,,+26.1,+12,+7,+0.0,+4.998,+0.000,+0.000,+25.3,+11.2,+10.1,+3.7,+26.2,+0,,,,
61.31,1,6,2018-07-27 08:30:24,+43.50299,+5.37192,496,0.1,0.0,-1.7,,,,,08:30:23,+4.7,+0.9,132.0,0.0,+363,+0.0,+0.01,+1.0,,-85,+31,0.0,29.89,+2396,,,324,,60.0,+0,,1,1,,,,,,,,,,,,,,,,,,,4,+26,0,0,30.5,0.0,0.0,0.0,11.2,10.1,21.8,12.3,,-2.3,2401.0,2379.6,,,,,,,,,,,,,,,+26.0,+12,+7,+0.0,+4.998,+0.000,+0.000,+25.3,+11.2,+10.1,+3.7,+26.2,+0,,,,
61.56,1,6,2018-07-27 08:30:24,+43.50299,+5.37192,495,0.1,0.0,-1.7,,,,,08:30:24,+4.7,+0.9,132.0,0.0,+363,+0.0,+0.01,+1.0,,-55,+31,0.0,29.89,+2396,,,324,,60.0,+0,,1,1,,,,,,,,,,,,,,,,,,,4,+26,0,0,30.5,0.0,0.0,0.0,11.2,10.1,21.8,12.3,,-2.3,2401.0,2379.6,,,,,,,,,,,,,,,+26.0,+12,+7,+0.0,+4.998,+0.000,+0.000,+25.3,+11.2,+10.1,+3.6,+26.2,+0,,,,
61.81,1,6,2018-07-27 08:30:24,+43.50299,+5.37192,495,0.1,0.0,-1.7,,,,,08:30:24,+4.7,+0.9,132.0,0.0,+363,+0.1,+0.01,+1.0,,-81,+31,0.0,29.89,+2396,,,324,,60.0,+0,,1,1,,,,,,,,,,,,,,,,,,,4,+26,0,0,30.5,0.0,0.0,0.0,11.2,10.1,21.8,12.3,,-2.3,2401.0,2379.6,,,,,,,,,,,,,,,+26.1,+12,+7,+0.0,+4.998,+0.000,+0.000,+25.3,+11.2,+10.1,+3.6,+26.2,+0,,,,
62.06,1,6,2018-07-27 08:30:24,+43.50299,+5.37192,494,0.1,0.0,-1.7,,,,,08:30:24,+4.7,+0.9,132.1,0.0,+363,+0.1,+0.01,+1.0,,-72,+31,0.0,29.89,+2396,,,324,,60.0,+0,,1,1,,,,,,,,,,,,,,,,,,,4,+26,0,0,30.5,0.0,0.0,0.0,11.2,10.2,21.8,12.2,,-2.4,2401.0,2379.6,,,,,,,,,,,,,,,+26.1,+12,+7,+0.0,+4.998,+0.000,+0.000,+25.3,+11.2,+10.2,+3.6,+26.2,+0,,,,
62.31,1,6,2018-07-27 08:30:25,+43.50300,+5.37192,493,0.1,0.0,-1.7,,,,,08:30:24,+4.7,+0.9,132.1,0.0,+361,+0.1,+0.01,+1.0,,-95,+31,0.0,29.89,+2396,,,324,,60.0,+0,,1,1,,,,,,,,,,,,,,,,,,,4,+26,0,0,30.5,0.0,0.0,0.0,11.2,10.2,21.8,12.2,,-2.3,2401.0,2379.6,,,,,,,,,,,,,,,+26.0,+12,+7,+0.0,+4.998,+0.000,+0.000,+25.3,+11.2,+10.2,+3.6,+26.2,+0,,,,
62.56,1,6,2018-07-27 08:30:25,+43.50300,+5.37192,493,0.1,0.0,-1.7,,,,,08:30:25,+4.7,+0.9,132.1,0.0,+361,+0.1,+0.01,+1.0,,-90,+31,0.0,29.89,+2396,,,324,,60.0,+0,,1,1,,,,,,,,,,,,,,,,,,,4,+26,0,0,30.5,0.0,0.0,0.0,11.2,10.2,21.8,12.2,,-2.3,2401.0,2379.6,,,,,,,,,,,,,,,+26.0,+12,+7,+0.0,+4.996,+0.000,+0.000,+25.3,+11.2,+10.2,+3.6,+26.2,+0,,,,
62.81,1,6,2018-07-27 08:30:25,+43.50300,+5.37192,492,0.1,0.0,-1.7,,,,,08:30:25,+4.7,+0.9,132.0,0.0,+360,+0.0,+0.01,+1.0,,-107,+31,0.0,29.89,+2390,,,324,,60.0,+0,,1,1,,,,,,,,,,,,,,,,,,,4,+25,0,0,30.5,0.0,0.0,0.0,11.2,10.2,21.8,12.2,,-2.3,2401.0,2379.6,,,,,,,,,,,,,,,+25.2,+12,+7,+0.0,+4.998,+0.000,+0.000,+24.5,+11.2,+10.2,+3.7,+25.4,+0,,,,
63.06,1,6,2018-07-27 08:30:25,+43.50300,+5.37192,492,0.1,0.0,-1.7,,,,,08:30:25,+4.7,+0.9,131.9,0.0,+359,+0.0,+0.01,+1.0,,-115,+31,0.0,29.89,+2390,,,324,,60.0,+0,,1,1,,,,,,,,,,,,,,,,,,,5,+23,0,0,30.3,0.0,0.0,0.9,11.2,10.3,21.8,10.5,,-2.3,2401.0,2379.6,,,,,,,,,,,,,,,+22.9,+12,+6,+0.9,+4.996,+0.000,+0.000,+22.3,+11.2,+10.3,+5.0,+23.1,+0,,,,
63.31,1,6,2018-07-27 08:30:26,+43.50300,+5.37192,491,0.1,0.0,-1.7,,,,,08:30:25,+4.7,+0.9,131.8,0.0,+359,+0.0,-0.00,+1.0,,-119,+31,0.0,29.89,+2390,,,324,,60.0,+0,,1,1,,,,,,,,,,,,,,,,,,,9,+24,273,273,30.1,0.0,0.0,1.2,11.2,10.3,21.8,9.6,,-2.2,2401.0,2379.6,,,,,,,,,,,,,,,+23.9,+12,+6,+1.2,+4.998,+0.000,+0.000,+23.3,+11.2,+10.3,+9.0,+24.1,+0,,,,
63.56,1,6,2018-07-27 08:30:26,+43.50300,+5.37192,491,0.1,0.0,-1.7,,,,,08:30:26,+4.6,+0.9,131.7,0.0,+359,+0.0,+0.01,+1.0,,-111,+31,0.0,29.89,+2390,,,324,,60.0,+0,,1,1,,,,,,,,,,,,,,,,,,,15,+25,645,645,29.6,0.0,0.0,1.8,11.2,10.3,21.8,9.5,,-2.2,2401.0,2379.6,,,,,,,,,,,,,,,+24.4,+12,+7,+1.8,+4.998,+0.000,+0.000,+23.7,+11.2,+10.3,+15.4,+24.5,+0,,,,
63.81,1,6,2018-07-27 08:30:26,+43.50300,+5.37192,490,0.0,0.0,-1.7,,,,,08:30:26,+4.6,+0.9,131.9,0.0,+359,+0.1,+0.01,+1.0,,-105,+31,0.0,29.89,+2390,,,324,,60.0,+0,,1,1,,,,,,,,,,,,,,,,,,,56,+26,824,824,28.1,0.0,0.0,2.7,11.2,10.3,21.8,9.7,,-2.3,2401.0,2379.6,,,,,,,,,,,,,,,+25.5,+12,+9,+2.7,+4.998,+0.000,+0.000,+24.7,+11.2,+10.3,+56.3,+25.6,+0,,,,
64.06,1,6,2018-07-27 08:30:26,+43.50300,+5.37192,490,0.1,0.0,-1.7,,,,,08:30:26,+4.6,+0.9,131.9,0.0,+359,+0.1,+0.01,+1.0,,-99,+31,0.0,29.89,+2388,,,324,,60.0,+0,,1,1,,,,,,,,,,,,,,,,,,,68,+25,475,475,27.8,0.0,0.0,3.3,11.2,10.2,21.8,10.0,,-2.5,2401.0,2379.6,,,,,,,,,,,,,,,+25.0,+12,+8,+3.3,+4.996,+0.000,+0.000,+24.3,+11.2,+10.2,+67.7,+25.2,+0,,,,
64.31,1,6,2018-07-27 08:30:27,+43.50300,+5.37192,489,0.0,0.0,-1.7,,,,,08:30:26,+4.7,+0.9,131.8,0.0,+358,+0.1,+0.01,+1.0,,-95,+31,0.0,29.89,+2388,,,324,,60.0,+0,,1,1,,,,,,,,,,,,,,,,,,,67,+25,411,411,27.9,0.0,0.0,3.5,11.2,10.2,21.8,10.0,,-2.6,2401.0,2379.6,,,,,,,,,,,,,,,+24.6,+12,+8,+3.5,+4.998,+0.000,+0.000,+23.9,+11.2,+10.2,+66.6,+24.7,+0,,,,
64.56,1,6,2018-07-27 08:30:27,+43.50301,+5.37192,489,0.0,0.0,-1.7,,,,,08:30:27,+4.7,+0.9,131.7,0.0,+358,+0.1,+0.01,+1.0,,-85,+31,0.0,29.89,+2388,,,324,,60.0,+0,,1,1,,,,,,,,,,,,,,,,,,,67,+25,428,428,28.2,0.0,0.0,3.7,11.2,10.2,21.8,10.0,,-2.6,2401.0,2379.6,,,,,,,,,,,,,,,+24.6,+12,+8,+3.7,+4.998,+0.000,+0.000,+23.9,+11.2,+10.2,+67.0,+24.7,+0,,,,
64.81,1,6,2018-07-27 08:30:27,+43.50301,+5.37192,488,0.0,0.0,-1.7,,,,,08:30:27,+4.7,+0.8,131.7,0.0,+358,+0.1,+0.01,+0.9,,-75,+31,0.0,29.89,+2388,,,324,,60.0,+0,,1,1,,,,,,,,,,,,,,,,,,,67,+25,473,473,28.6,0.0,0.0,3.9,11.2,10.2,21.8,9.9,,-2.6,2401.0,2379.6,,,,,,,,,,,,,,,+24.5,+12,+8,+3.9,+4.998,+0.000,+0.000,+23.8,+11.2,+10.2,+67.3,+24.7,+0,,,,
65.06,1,6,2018-07-27 08:30:27,+43.50301,+5.37192,488,0.0,0.0,-1.7,,,,,08:30:27,+4.7,+0.8,131.7,0.0,+358,+0.1,+0.01,+1.0,,-67,+31,0.0,29.89,+2388,,,324,,60.0,+0,,1,1,,,,,,,,,,,,,,,,,,,68,+25,646,646,28.8,0.0,0.0,3.8,11.1,10.2,21.8,9.9,,-2.5,2401.0,2379.6,,,,,,,,,,,,,,,+24.7,+12,+8,+3.8,+4.998,+0.000,+0.000,+24.0,+11.1,+10.2,+68.3,+24.8,+0,,,,
65.31,1,6,2018-07-27 08:30:28,+43.50301,+5.37192,488,0.0,0.0,-1.7,,,,,08:30:27,+4.7,+0.8,131.8,0.0,+358,+0.1,+0.01,+1.0,,-58,+31,0.0,29.89,+2388,,,324,,60.0,+0,,1,1,,,,,,,,,,,,,,,,,,,73,+26,1166,1166,28.8,0.0,0.0,3.6,11.1,10.1,21.8,10.1,,-2.5,2401.0,2379.6,,,,,,,,,,,,,,,+25.5,+12,+7,+3.6,+4.998,+0.000,+0.000,+24.8,+11.1,+10.1,+72.6,+25.7,+0,,,,
65.56,1,6,2018-07-27 08:30:28,+43.50301,+5.37192,487,0.1,0.0,-1.7,,,,,08:30:28,+4.7,+0.8,131.9,0.0,+358,+0.1,+0.01,+0.9,,-45,+31,0.0,29.89,+2388,,,324,,60.0,+0,,1,1,,,,,,,,,,,,,,,,,,,75,+26,1502,1502,28.0,0.0,0.0,3.4,11.1,10.1,21.8,10.5,,-2.8,2401.0,2379.6,,,,,,,,,,,,,,,+25.7,+12,+7,+3.4,+4.998,+0.000,+0.000,+25.0,+11.1,+10.1,+74.6,+25.9,+0,,,,
65.81,1,6,2018-07-27 08:30:28,+43.50301,+5.37192,487,0.1,0.0,-1.7,,,,,08:30:28,+4.6,+0.8,132.0,0.0,+358,+0.1,+0.01,+1.0,,-32,+31,0.0,29.89,+2387,,,324,,60.0,+0,,1,1,,,,,,,,,,,,,,,,,,,74,+26,1618,1618,27.4,0.0,0.0,3.7,11.1,10.1,21.8,10.7,,-3.1,2401.0,2379.6,,,,,,,,,,,,,,,+25.7,+12,+7,+3.7,+4.998,+0.000,+0.000,+25.0,+11.1,+10.1,+74.0,+25.9,+0,,,,
66.06,1,6,2018-07-27 08:30:28,+43.50301,+5.37192,486,0.1,0.0,-1.7,,,,,08:30:28,+4.6,+0.8,132.1,0.0,+358,+0.1,+0.01,+1.0,,-18,+31,0.0,29.89,+2387,,,324,,60.0,+0,,1,1,,,,,,,,,,,,,,,,,,,73,+26,1902,1902,26.8,0.0,0.0,3.4,11.2,10.1,21.8,11.2,,-3.1,2401.0,2379.6,,,,,,,,,,,,,,,+26.0,+12,+7,+3.4,+4.998,+0.000,+0.000,+25.3,+11.2,+10.1,+72.6,+26.2,+0,,,,
66.31,1,6,2018-07-27 08:30:29,+43.50301,+5.37192,485,0.1,0.0,-1.7,,,,,08:30:28,+4.6,+0.9,132.2,0.0,+358,+0.1,+0.01,+1.0,,-4,+31,0.0,29.89,+2387,,,324,,60.0,+0,,1,1,,,,,,,,,,,,,,,,,,,69,+26,2169,2169,26.0,0.0,0.0,3.2,11.2,10.1,21.8,11.6,,-2.9,2401.0,2379.6,,,,,,,,,,,,,,,+26.1,+12,+7,+3.2,+4.998,+0.000,+0.000,+25.3,+11.2,+10.1,+69.4,+26.3,+0,,,,
66.56,1,6,2018-07-27 08:30:29,+43.50301,+5.37192,485,0.1,0.0,-1.7,,,,,08:30:29,+4.6,+0.9,132.3,0.0,+358,+0.1,+0.01,+1.0,,+8,+31,0.0,29.89,+2387,,,324,,60.0,+0,,1,1,,,,,,,,,,,,,,,,,,,68,+26,2301,2301,25.1,0.0,0.0,3.3,11.2,10.1,21.8,11.8,,-2.8,2401.0,2379.6,,,,,,,,,,,,,,,+26.0,+12,+8,+3.3,+4.998,+0.000,+0.000,+25.3,+11.2,+10.1,+68.3,+26.3,+0,,,,
66.81,1,6,2018-07-27 08:30:29,+43.50301,+5.37192,484,0.1,0.0,-1.7,,,,,08:30:29,+4.6,+0.9,132.4,0.0,+358,+0.2,+0.01,+1.0,,+15,+31,0.0,29.89,+2387,,,324,,60.0,+0,,1,1,,,,,,,,,,,,,,,,,,,67,+26,2341,2341,24.5,0.0,0.0,3.3,11.2,10.1,21.8,11.9,,-2.8,2401.0,2379.6,,,,,,,,,,,,,,,+26.0,+12,+8,+3.3,+4.998,+0.000,+0.000,+25.3,+11.2,+10.1,+67.0,+26.3,+0,,,,
67.06,1,6,2018-07-27 08:30:29,+43.50301,+5.37192,484,0.1,0.0,-1.7,,,,,08:30:29,+4.6,+0.9,132.4,0.0,+358,+0.2,+0.01,+0.9,,+22,+31,0.0,29.89,+2387,,,324,,60.0,+0,,1,1,,,,,,,,,,,,,,,,,,,67,+26,2376,2376,24.0,0.0,0.0,3.1,11.1,10.0,21.8,12.0,,-2.7,2401.0,2379.6,,,,,,,,,,,,,,,+26.0,+12,+8,+3.1,+4.998,+0.000,+0.000,+25.3,+11.1,+10.0,+67.3,+26.4,+0,,,,
67.31,1,6,2018-07-27 08:30:30,+43.50302,+5.37192,483,0.1,0.0,-1.7,,,,,08:30:29,+4.6,+0.9,132.4,0.0,+358,+0.1,+0.01,+1.0,,+27,+31,0.0,29.89,+2387,,,324,,60.0,+0,,1,1,,,,,,,,,,,,,,,,,,,69,+26,1974,1974,22.8,0.0,0.0,2.7,11.1,10.0,21.8,12.1,,-2.7,2401.0,2379.6,,,,,,,,,,,,,,,+26.0,+12,+8,+2.7,+4.998,+0.000,+0.000,+25.3,+11.1,+10.0,+69.2,+26.4,+0,,,,
67.56,1,6,2018-07-27 08:30:30,+43.50302,+5.37192,483,0.1,0.0,-1.7,,,,,08:30:30,+4.7,+0.9,132.5,0.0,+358,+0.1,+0.01,+1.0,,+30,+31,0.0,29.89,+2387,,,324,,60.0,+0,,1,1,,,,,,,,,,,,,,,,,,,72,+26,1692,1692,22.5,0.0,0.0,3.0,11.1,10.0,21.8,12.1,,-2.6,2401.0,2379.6,,,,,,,,,,,,,,,+26.0,+12,+8,+3.0,+4.998,+0.000,+0.000,+25.3,+11.1,+10.0,+72.1,+26.4,+0,,,,
67.81,1,6,2018-07-27 08:30:30,+43.50302,+5.37192,483,0.1,0.0,-1.7,,,,,08:30:30,+4.7,+0.9,132.5,0.0,+358,+0.1,+0.01,+1.0,,+33,+31,0.0,29.89,+2387,,,324,,60.0,+0,,1,1,,,,,,,,,,,,,,,,,,,75,+26,1533,1533,22.5,0.0,0.0,3.1,11.1,10.0,21.8,12.1,,-2.5,2401.0,2379.6,,,,,,,,,,,,,,,+26.0,+12,+8,+3.1,+4.998,+0.000,+0.000,+25.3,+11.1,+10.0,+74.6,+26.4,+0,,,,
68.06,1,6,2018-07-27 08:30:30,+43.50302,+5.37192,483,0.1,0.0,-1.7,,,,,08:30:30,+4.7,+0.9,132.5,0.0,+358,+0.1,+0.01,+0.9,,+36,+31,0.0,29.89,+2387,,,324,,60.0,+0,,1,1,,,,,,,,,,,,,,,,,,,74,+26,1563,1563,22.7,0.0,0.0,3.4,11.1,10.0,21.8,12.1,,-2.5,2401.0,2379.6,,,,,,,,,,,,,,,+26.1,+12,+8,+3.4,+4.998,+0.000,+0.000,+25.4,+11.1,+10.0,+74.0,+26.4,+0,,,,
68.31,1,6,2018-07-27 08:30:31,+43.50303,+5.37192,482,0.1,0.0,-1.7,,,,,08:30:30,+4.7,+0.9,132.6,0.0,+358,+0.1,+0.01,+1.0,,+38,+31,0.0,29.89,+2387,,,324,,60.0,+0,,1,1,,,,,,,,,,,,,,,,,,,74,+26,1586,1586,22.7,0.0,0.0,3.7,11.1,10.0,21.8,12.2,,-2.5,2401.0,2379.6,,,,,,,,,,,,,,,+26.1,+12,+8,+3.7,+4.998,+0.000,+0.000,+25.4,+11.1,+10.0,+73.8,+26.4,+0,,,,
68.56,1,6,2018-07-27 08:30:31,+43.50303,+5.37192,482,0.1,0.0,-1.7,,,,,08:30:31,+4.7,+0.9,132.5,0.0,+358,+0.1,+0.01,+1.0,,+42,+31,0.0,29.89,+2387,,,324,,60.0,+0,,1,1,,,,,,,,,,,,,,,,,,,74,+26,1605,1605,22.7,0.0,0.0,3.9,11.1,10.0,21.8,12.2,,-2.5,2401.0,2379.6,,,,,,,,,,,,,,,+26.1,+12,+8,+3.9,+4.998,+0.000,+0.000,+25.4,+11.1,+10.0,+73.7,+26.5,+0,,,,
68.81,1,6,2018-07-27 08:30:31,+43.50303,+5.37192,482,0.1,0.0,-1.7,,,,,08:30:31,+4.7,+0.8,132.5,0.0,+358,+0.1,+0.01,+1.0,,+38,+31,0.0,29.89,+2378,,,324,,60.0,+0,,1,1,,,,,,,,,,,,,,,,,,,72,+26,1876,1876,23.0,0.0,0.0,4.0,11.1,10.0,21.8,12.2,,-2.4,2401.0,2379.6,,,,,,,,,,,,,,,+26.1,+12,+8,+4.0,+4.998,+0.000,+0.000,+25.5,+11.1,+10.0,+71.7,+26.5,+0,,,,
69.06,1,6,2018-07-27 08:30:31,+43.50303,+5.37192,481,0.1,0.0,-1.7,,,,,08:30:31,+4.7,+0.8,132.5,0.0,+358,+0.0,+0.01,+1.0,,+49,+31,0.0,29.89,+2378,,,324,,60.0,+0,,1,1,,,,,,,,,,,,,,,,,,,65,+27,2432,2432,23.1,0.0,0.0,3.8,11.1,9.9,21.8,12.2,,-2.4,2401.0,2379.6,,,,,,,,,,,,,,,+26.2,+12,+8,+3.8,+4.998,+0.000,+0.000,+25.5,+11.1,+9.9,+64.6,+26.5,+0,,,,
69.31,1,6,2018-07-27 08:30:32,+43.50303,+5.37192,481,0.1,0.0,-1.7,,,,,08:30:31,+4.7,+0.8,132.6,0.0,+358,+0.1,+0.01,+0.9,,+56,+31,0.0,29.89,+2378,,,324,,60.0,+0,,1,1,,,,,,,,,,,,,,,,,,,64,+27,2445,2445,22.9,0.0,0.0,3.3,11.1,9.9,21.8,12.2,,-2.5,2401.0,2379.6,,,,,,,,,,,,,,,+26.2,+12,+8,+3.3,+4.998,+0.000,+0.000,+25.6,+11.1,+9.9,+64.0,+26.6,+0,,,,
69.56,1,6,2018-07-27 08:30:32,+43.50303,+5.37192,481,0.1,0.0,-1.7,,,,,08:30:32,+4.7,+0.8,132.6,0.0,+358,+0.1,+0.01,+1.0,,+61,+31,0.0,29.89,+2378,,,324,,60.0,+0,,1,1,,,,,,,,,,,,,,,,,,,66,+27,2277,2277,22.0,0.0,0.0,3.1,11.1,9.9,21.8,12.2,,-2.4,2401.0,2379.6,,,,,,,,,,,,,,,+26.3,+12,+8,+3.1,+4.998,+0.000,+0.000,+25.7,+11.1,+9.9,+66.1,+26.6,+0,,,,
69.81,1,6,2018-07-27 08:30:32,+43.50303,+5.37192,481,0.1,0.0,-1.7,,,,,08:30:32,+4.7,+0.9,132.6,0.0,+358,+0.1,+0.02,+1.0,,+57,+31,0.0,29.89,+2378,,,324,,60.0,+0,,1,1,,,,,,,,,,,,,,,,,,,67,+27,2244,2244,21.3,0.0,0.0,3.1,11.1,9.9,21.8,12.2,,-2.4,2401.0,2379.6,,,,,,,,,,,,,,,+26.3,+12,+8,+3.1,+4.998,+0.000,+0.000,+25.7,+11.1,+9.9,+67.4,+26.6,+0,,,,
70.06,1,6,2018-07-27 08:30:32,+43.50303,+5.37192,481,0.1,0.0,-1.7,,,,,08:30:32,+4.7,+0.9,132.6,0.0,+358,+0.1,+0.01,+1.0,,+61,+31,0.0,29.89,+2378,,,324,,60.0,+0,,1,1,,,,,,,,,,,,,,,,,,,67,+27,2181,2181,20.8,0.0,0.0,2.9,11.1,10.0,21.8,12.2,,-2.3,2401.0,2379.6,,,,,,,,,,,,,,,+26.4,+12,+8,+2.9,+4.998,+0.000,+0.000,+25.8,+11.1,+10.0,+67.1,+26.6,+0,,,,
70.31,1,6,2018-07-27 08:30:33,+43.50303,+5.37192,481,0.1,0.0,-1.7,,,,,08:30:32,+4.7,+0.8,132.6,0.0,+358,+0.1,+0.01,+1.0,,+52,+31,0.0,29.89,+2378,,,324,,60.0,+0,,1,1,,,,,,,,,,,,,,,,,,,66,+27,2208,2208,20.5,0.0,0.0,2.7,11.1,10.0,21.8,12.2,,-2.3,2401.0,2379.6,,,,,,,,,,,,,,,+26.5,+12,+8,+2.7,+4.998,+0.000,+0.000,+25.9,+11.1,+10.0,+66.2,+26.6,+0,,,,
70.56,1,6,2018-07-27 08:30:33,+43.50303,+5.37192,481,0.1,0.0,-1.7,,,,,08:30:33,+4.7,+0.8,132.6,0.0,+358,+0.1,+0.01,+1.0,,+29,+31,0.0,29.89,+2378,,,324,,60.0,+0,,1,1,,,,,,,,,,,,,,,,,,,65,+27,2297,2297,20.5,0.0,0.0,2.7,11.1,10.0,21.8,12.2,,-2.4,2401.0,2379.6,,,,,,,,,,,,,,,+26.6,+12,+7,+2.7,+4.998,+0.000,+0.000,+26.0,+11.1,+10.0,+65.1,+26.7,+0,,,,
70.81,1,6,2018-07-27 08:30:33,+43.50303,+5.37192,481,0.1,0.0,-1.7,,,,,08:30:33,+4.7,+0.8,132.7,0.0,+358,+0.1,+0.01,+1.0,,+28,+31,0.0,29.89,+2378,,,324,,60.0,+0,,1,1,,,,,,,,,,,,,,,,,,,65,+27,2330,2330,20.4,0.0,0.0,2.8,11.1,10.0,21.8,12.2,,-2.4,2401.0,2379.6,,,,,,,,,,,,,,,+26.6,+12,+7,+2.8,+4.998,+0.000,+0.000,+26.1,+11.1,+10.0,+64.9,+26.7,+0,,,,
71.06,1,6,2018-07-27 08:30:33,+43.50303,+5.37192,481,0.1,0.0,-1.7,,,,,08:30:33,+4.7,+0.8,132.7,0.0,+358,+0.1,+0.01,+1.0,,+26,+31,0.0,29.89,+2378,,,324,,60.0,+0,,1,1,,,,,,,,,,,,,,,,,,,65,+27,2320,2320,20.2,0.0,0.0,2.9,11.1,9.9,21.8,12.2,,-2.3,2401.0,2379.6,,,,,,,,,,,,,,,+26.7,+12,+7,+2.9,+4.998,+0.000,+0.000,+26.1,+11.1,+9.9,+64.7,+26.7,+0,,,,
71.31,1,6,2018-07-27 08:30:34,+43.50303,+5.37192,481,0.1,0.0,-1.7,,,,,08:30:34,+4.7,+0.8,132.6,0.0,+358,+0.1,+0.01,+1.0,,+13,+31,0.0,29.89,+2378,,,324,,60.0,+0,,1,1,,,,,,,,,,,,,,,,,,,64,+27,2285,2285,20.1,0.0,0.0,2.9,11.1,9.9,21.8,12.2,,-2.3,2401.0,2379.6,,,,,,,,,,,,,,,+26.7,+12,+7,+2.9,+4.998,+0.000,+0.000,+26.2,+11.1,+9.9,+64.3,+26.7,+0,,,,
71.56,1,6,2018-07-27 08:30:34,+43.50303,+5.37192,481,0.1,0.0,-1.7,,,,,08:30:34,+4.7,+0.8,132.6,0.0,+358,+0.0,+0.01,+0.9,,+24,+31,0.0,29.89,+2376,,,324,,60.0,+0,,1,1,,,,,,,,,,,,,,,,,,,64,+27,2293,2293,19.9,0.0,0.0,2.7,11.1,9.9,21.8,12.2,,-2.3,2401.0,2379.6,,,,,,,,,,,,,,,+26.8,+12,+7,+2.7,+4.998,+0.000,+0.000,+26.3,+11.1,+9.9,+64.1,+26.8,+0,,,,
71.81,1,6,2018-07-27 08:30:34,+43.50303,+5.37192,481,0.1,0.0,-1.7,,,,,08:30:34,+4.7,+0.8,132.6,0.0,+358,+0.0,+0.01,+1.0,,+9,+31,0.0,29.89,+2376,,,324,,60.0,+0,,1,1,,,,,,,,,,,,,,,,,,,64,+27,2286,2286,19.8,0.0,0.0,2.5,11.1,9.9,21.8,12.2,,-2.4,2401.0,2379.6,,,,,,,,,,,,,,,+26.8,+12,+7,+2.5,+4.998,+0.000,+0.000,+26.3,+11.1,+9.9,+64.4,+26.8,+0,,,,
72.06,1,6,2018-07-27 08:30:34,+43.50303,+5.37192,481,0.1,0.0,-1.7,,,,,08:30:34,+4.7,+0.8,132.7,0.0,+358,+0.1,+0.01,+1.0,,-6,+31,0.0,29.89,+2376,,,324,,60.0,+0,,1,1,,,,,,,,,,,,,,,,,,,64,+27,2297,2297,19.8,0.0,0.0,2.7,11.1,9.9,21.8,12.2,,-2.4,2401.0,2379.6,,,,,,,,,,,,,,,+26.9,+12,+7,+2.7,+4.998,+0.000,+0.000,+26.4,+11.1,+9.9,+63.6,+26.8,+0,,,,
72.31,1,6,2018-07-27 08:30:35,+43.50304,+5.37192,481,0.1,0.0,-1.7,,,,,08:30:34,+4.7,+0.8,132.6,0.0,+358,+0.0,+0.01,+1.0,,-25,+31,0.0,29.89,+2376,,,324,,60.0,+0,,1,1,,,,,,,,,,,,,,,,,,,63,+27,2302,2302,19.7,0.0,0.0,2.8,11.1,9.9,21.8,12.3,,-2.3,2401.0,2379.6,,,,,,,,,,,,,,,+26.9,+12,+7,+2.8,+4.998,+0.000,+0.000,+26.4,+11.1,+9.9,+63.4,+26.9,+0,,,,
72.56,1,6,2018-07-27 08:30:35,+43.50304,+5.37192,481,0.1,0.0,-1.7,,,,,08:30:35,+4.7,+0.8,132.6,0.0,+358,+0.0,+0.01,+1.0,,-25,+31,0.0,29.89,+2376,,,324,,60.0,+0,,1,1,,,,,,,,,,,,,,,,,,,63,+27,2308,2308,19.7,0.0,0.0,2.8,11.1,9.9,21.8,12.3,,-2.3,2401.0,2379.6,,,,,,,,,,,,,,,+27.0,+12,+7,+2.8,+4.998,+0.000,+0.000,+26.5,+11.1,+9.9,+63.3,+26.9,+0,,,,
72.81,1,6,2018-07-27 08:30:35,+43.50304,+5.37192,481,0.1,0.0,-1.7,,,,,08:30:35,+4.7,+0.9,132.7,0.0,+358,+0.1,+0.01,+1.0,,-39,+31,0.0,29.89,+2376,,,324,,60.0,+0,,1,1,,,,,,,,,,,,,,,,,,,63,+27,2312,2312,19.7,0.0,0.0,2.5,11.1,9.9,21.8,12.3,,-2.3,2401.0,2379.6,,,,,,,,,,,,,,,+27.0,+12,+7,+2.5,+4.998,+0.000,+0.000,+26.6,+11.1,+9.9,+62.9,+26.9,+0,,,,
73.06,1,6,2018-07-27 08:30:35,+43.50304,+5.37192,481,0.1,0.0,-1.7,,,,,08:30:35,+4.7,+0.9,132.6,0.0,+358,+0.1,+0.01,+1.0,,-42,+31,0.0,29.89,+2376,,,324,,60.0,+0,,1,1,,,,,,,,,,,,,,,,,,,63,+27,2326,2326,19.6,0.0,0.0,2.7,11.1,9.9,21.8,12.3,,-2.4,2401.0,2379.6,,,,,,,,,,,,,,,+27.1,+12,+7,+2.7,+4.998,+0.000,+0.000,+26.6,+11.1,+9.9,+62.6,+27.0,+0,,,,
73.31,1,6,2018-07-27 08:30:36,+43.50304,+5.37192,481,0.1,0.0,-1.7,,,,,08:30:35,+4.7,+0.8,132.6,0.0,+358,+0.0,+0.01,+1.0,,-53,+31,0.0,29.89,+2376,,,324,,60.0,+0,,1,1,,,,,,,,,,,,,,,,,,,62,+27,2340,2340,19.6,0.0,0.0,2.4,11.1,9.9,21.8,12.3,,-2.3,2401.0,2379.6,,,,,,,,,,,,,,,+27.1,+12,+7,+2.4,+4.998,+0.000,+0.000,+26.6,+11.1,+9.9,+62.3,+27.0,+0,,,,
73.56,1,6,2018-07-27 08:30:36,+43.50304,+5.37192,481,0.1,0.0,-1.7,,,,,08:30:36,+4.7,+0.8,132.6,0.0,+358,+0.0,+0.01,+1.0,,-38,+31,0.0,29.89,+2376,,,324,,60.0,+0,,1,1,,,,,,,,,,,,,,,,,,,62,+27,2338,2338,19.6,0.0,0.0,2.4,11.1,9.9,21.8,12.3,,-2.3,2401.0,2379.6,,,,,,,,,,,,,,,+27.1,+12,+8,+2.4,+4.998,+0.000,+0.000,+26.7,+11.1,+9.9,+62.2,+27.0,+0,,,,
73.81,1,6,2018-07-27 08:30:36,+43.50304,+5.37192,481,0.1,0.0,-1.7,,,,,08:30:36,+4.7,+0.8,132.6,0.0,+358,+0.0,+0.01,+1.0,,-43,+31,0.0,29.89,+2376,,,324,,60.0,+0,,1,1,,,,,,,,,,,,,,,,,,,62,+27,2335,2335,19.5,0.0,0.0,2.7,11.1,9.9,21.8,12.3,,-2.3,2401.0,2379.6,,,,,,,,,,,,,,,+27.2,+12,+8,+2.7,+4.998,+0.000,+0.000,+26.8,+11.1,+9.9,+62.0,+27.1,+0,,,,
74.06,1,6,2018-07-27 08:30:36,+43.50304,+5.37192,481,0.1,0.0,-1.7,,,,,08:30:36,+4.7,+0.8,132.6,0.0,+358,+0.0,+0.01,+1.0,,-62,+31,0.0,29.89,+2376,,,324,,60.0,+0,,1,1,,,,,,,,,,,,,,,,,,,62,+27,2336,2336,19.5,0.0,0.0,2.6,11.1,10.0,21.8,12.3,,-2.4,2401.0,2379.6,,,,,,,,,,,,,,,+27.2,+12,+8,+2.6,+4.998,+0.000,+0.000,+26.9,+11.1,+10.0,+61.9,+27.1,+0,,,,
74.31,1,6,2018-07-27 08:30:37,+43.50304,+5.37192,481,0.1,0.0,-1.7,,,,,08:30:36,+4.7,+0.8,132.6,0.0,+358,+0.0,+0.01,+1.0,,-73,+31,0.0,29.89,+2366,,,324,,60.0,+0,,1,1,,,,,,,,,,,,,,,,,,,62,+27,2344,2344,19.5,0.0,0.0,2.4,11.1,10.0,21.8,12.3,,-2.4,2401.0,2379.6,,,,,,,,,,,,,,,+27.3,+12,+8,+2.4,+4.998,+0.000,+0.000,+26.9,+11.1,+10.0,+61.8,+27.1,+0,,,,
74.56,1,5,2018-07-27 08:30:37,+43.50304,+5.37192,481,0.1,0.0,-1.7,,,,,08:30:37,+4.7,+0.8,132.6,0.0,+358,+0.1,+0.01,+1.0,,-67,+31,0.0,29.89,+2366,,,324,,60.0,+0,,1,1,,,,,,,,,,,,,,,,,,,62,+27,2338,2338,19.5,0.0,0.0,2.8,11.1,10.0,21.8,12.3,,-2.3,2401.0,2379.6,,,,,,,,,,,,,,,+27.3,+12,+8,+2.8,+4.998,+0.000,+0.000,+27.0,+11.1,+10.0,+61.7,+27.1,+0,,,,
74.81,1,5,2018-07-27 08:30:37,+43.50304,+5.37192,481,0.1,0.0,-1.7,,,,,08:30:37,+4.7,+0.8,132.6,0.0,+358,+0.0,+0.01,+1.0,,-63,+31,0.0,29.89,+2366,,,324,,60.0,+0,,1,1,,,,,,,,,,,,,,,,,,,62,+27,2345,2345,19.5,0.0,0.0,2.7,11.1,10.0,21.8,12.3,,-2.3,2401.0,2379.6,,,,,,,,,,,,,,,+27.4,+12,+8,+2.7,+4.998,+0.000,+0.000,+27.1,+11.1,+10.0,+61.7,+27.2,+0,,,,
75.06,1,5,2018-07-27 08:30:37,+43.50304,+5.37192,481,0.1,0.0,-1.7,,,,,08:30:37,+4.7,+0.8,132.6,0.0,+358,+0.0,+0.01,+1.0,,-59,+31,0.0,29.89,+2366,,,324,,60.0,+0,,1,1,,,,,,,,,,,,,,,,,,,61,+27,2354,2354,19.5,0.0,0.0,2.4,11.1,10.0,21.8,12.3,,-2.3,2401.0,2379.6,,,,,,,,,,,,,,,+27.4,+12,+8,+2.4,+4.998,+0.000,+0.000,+27.1,+11.1,+10.0,+61.4,+27.2,+0,,,,
75.31,1,5,2018-07-27 08:30:38,+43.50304,+5.37192,481,0.1,0.0,-1.7,,,,,08:30:37,+4.6,+0.8,132.6,0.0,+358,+0.1,+0.01,+1.0,,-60,+31,0.0,29.89,+2366,,,324,,60.0,+0,,1,1,,,,,,,,,,,,,,,,,,,61,+27,2351,2351,19.5,0.0,0.0,2.9,11.1,10.0,21.8,12.3,,-2.4,2401.0,2379.6,,,,,,,,,,,,,,,+27.5,+12,+8,+2.9,+4.998,+0.000,+0.000,+27.2,+11.1,+10.0,+61.3,+27.2,+0,,,,
75.56,1,5,2018-07-27 08:30:38,+43.50304,+5.37192,481,0.1,0.0,-1.7,,,,,08:30:38,+4.6,+0.8,132.6,0.0,+358,+0.1,+0.01,+1.0,,-63,+31,0.0,29.89,+2366,,,324,,60.0,+0,,1,1,,,,,,,,,,,,,,,,,,,61,+27,2362,2362,19.4,0.0,0.0,3.1,11.1,10.0,21.8,12.3,,-2.4,2401.0,2379.6,,,,,,,,,,,,,,,+27.5,+12,+8,+3.1,+4.998,+0.000,+0.000,+27.3,+11.1,+10.0,+61.2,+27.3,+0,,,,
75.81,1,5,2018-07-27 08:30:38,+43.50304,+5.37192,481,0.1,0.0,-1.7,,,,,08:30:38,+4.7,+0.9,132.6,0.0,+358,+0.0,+0.01,+1.0,,-62,+31,0.0,29.89,+2366,,,324,,60.0,+0,,1,1,,,,,,,,,,,,,,,,,,,61,+27,2380,2380,19.4,0.0,0.0,2.7,11.1,10.0,21.8,12.3,,-2.3,2401.0,2379.6,,,,,,,,,,,,,,,+27.6,+12,+8,+2.7,+4.998,+0.000,+0.000,+27.4,+11.1,+10.0,+60.9,+27.3,+0,,,,
76.06,1,5,2018-07-27 08:30:38,+43.50304,+5.37192,481,0.1,0.0,-1.7,,,,,08:30:38,+4.7,+0.9,132.6,0.0,+357,+0.0,+0.01,+1.0,,-58,+31,0.0,29.89,+2365,,,324,,60.0,+0,,1,1,,,,,,,,,,,,,,,,,,,61,+27,2370,2370,19.4,0.0,0.0,3.0,11.0,10.0,21.8,12.3,,-2.3,2401.0,2379.6,,,,,,,,,,,,,,,+27.7,+12,+8,+3.0,+4.998,+0.000,+0.000,+27.5,+11.0,+10.0,+61.0,+27.3,+0,,,,
76.31,1,5,2018-07-27 08:30:39,+43.50304,+5.37192,481,0.1,0.0,-1.7,,,,,08:30:38,+4.7,+0.9,132.6,0.0,+357,+0.0,+0.01,+1.0,,-54,+31,0.0,29.89,+2365,,,324,,60.0,+0,,1,1,,,,,,,,,,,,,,,,,,,61,+27,2385,2385,19.3,0.0,0.0,3.3,11.0,10.0,21.8,12.4,,-2.3,2401.0,2379.6,,,,,,,,,,,,,,,+27.7,+12,+8,+3.3,+4.998,+0.000,+0.000,+27.6,+11.0,+10.0,+60.8,+27.4,+0,,,,
76.56,1,5,2018-07-27 08:30:39,+43.50304,+5.37192,481,0.1,0.0,-1.7,,,,,08:30:39,+4.7,+0.9,132.6,0.0,+357,+0.0,+0.01,+1.0,,-54,+31,0.0,29.89,+2365,,,324,,60.0,+0,,1,1,,,,,,,,,,,,,,,,,,,61,+27,2369,2369,19.3,0.0,0.0,3.3,11.0,10.0,21.8,12.4,,-2.4,2401.0,2379.6,,,,,,,,,,,,,,,+27.8,+12,+7,+3.3,+4.998,+0.000,+0.000,+27.7,+11.0,+10.0,+60.9,+27.4,+0,,,,
76.81,1,5,2018-07-27 08:30:39,+43.50304,+5.37192,481,0.1,0.0,-1.7,,,,,08:30:39,+4.7,+0.9,132.5,0.0,+357,+0.0,+0.01,+1.0,,-44,+31,0.0,29.89,+2365,,,324,,60.0,+0,,1,1,,,,,,,,,,,,,,,,,,,61,+27,2384,2384,19.3,0.0,0.0,3.0,11.0,10.0,21.8,12.4,,-2.3,2401.0,2379.6,,,,,,,,,,,,,,,+27.9,+12,+7,+3.0,+4.998,+0.000,+0.000,+27.7,+11.0,+10.0,+60.8,+27.4,+0,,,,
77.06,1,5,2018-07-27 08:30:39,+43.50304,+5.37192,481,0.1,0.0,-1.7,,,,,08:30:39,+4.7,+0.9,132.6,0.0,+357,+0.0,+0.01,+1.0,,-31,+31,0.0,29.89,+2365,,,324,,60.0,+0,,1,1,,,,,,,,,,,,,,,,,,,61,+27,2389,2389,19.3,0.0,0.0,3.2,11.1,10.0,21.8,12.4,,-2.3,2401.0,2379.6,,,,,,,,,,,,,,,+28.0,+12,+8,+3.2,+4.998,+0.000,+0.000,+27.8,+11.1,+10.0,+61.0,+27.4,+0,,,,
77.31,1,5,2018-07-27 08:30:40,+43.50304,+5.37192,481,0.1,0.0,-1.7,,,,,08:30:39,+4.7,+0.9,132.6,0.0,+357,+0.0,+0.01,+1.0,,-16,+31,0.0,29.89,+2365,,,324,,60.0,+0,,1,1,,,,,,,,,,,,,,,,,,,61,+27,2385,2385,19.3,0.0,0.0,3.3,11.1,10.0,21.8,12.4,,-2.3,2401.0,2379.6,,,,,,,,,,,,,,,+28.1,+12,+8,+3.3,+4.998,+0.000,+0.000,+27.9,+11.1,+10.0,+60.7,+27.5,+0,,,,
77.56,1,5,2018-07-27 08:30:40,+43.50304,+5.37192,480,0.1,0.0,-1.7,,,,,08:30:40,+4.7,+0.9,132.5,0.0,+357,+0.0,+0.01,+1.0,,+1,+31,0.0,29.89,+2365,,,324,,60.0,+0,,1,1,,,,,,,,,,,,,,,,,,,61,+28,2380,2380,19.3,0.0,0.0,3.3,11.1,10.0,21.8,12.4,,-2.3,2401.0,2379.6,,,,,,,,,,,,,,,+28.2,+12,+8,+3.3,+4.998,+0.000,+0.000,+28.0,+11.1,+10.0,+60.6,+27.5,+0,,,,
77.81,1,5,2018-07-27 08:30:40,+43.50304,+5.37192,480,0.1,0.0,-1.7,,,,,08:30:40,+4.7,+0.8,132.5,0.0,+357,+0.0,+0.01,+1.0,,+14,+31,0.0,29.89,+2365,,,324,,60.0,+0,,1,1,,,,,,,,,,,,,,,,,,,61,+28,2389,2389,19.3,0.0,0.0,3.3,11.1,10.0,21.8,12.4,,-2.4,2401.0,2379.6,,,,,,,,,,,,,,,+28.2,+12,+7,+3.3,+4.998,+0.000,+0.000,+28.1,+11.1,+10.0,+60.8,+27.5,+0,,,,
78.06,1,5,2018-07-27 08:30:40,+43.50304,+5.37192,480,0.1,0.0,-1.7,,,,,08:30:40,+4.7,+0.8,132.6,0.0,+357,+0.0,+0.01,+1.0,,+25,+31,0.0,29.89,+2365,,,324,,60.0,+0,,1,1,,,,,,,,,,,,,,,,,,,61,+28,2390,2390,19.2,0.0,0.0,3.4,11.1,10.0,21.8,12.4,,-2.3,2401.0,2379.6,,,,,,,,,,,,,,,+28.3,+12,+7,+3.4,+4.998,+0.000,+0.000,+28.2,+11.1,+10.0,+60.9,+27.6,+0,,,,
78.31,1,5,2018-07-27 08:30:41,+43.50304,+5.37192,480,0.1,0.0,-1.7,,,,,08:30:40,+4.7,+0.8,132.6,0.0,+357,+0.1,+0.01,+1.0,,+42,+31,0.0,29.89,+2365,,,324,,60.0,+0,,1,1,,,,,,,,,,,,,,,,,,,61,+28,2375,2375,19.2,0.0,0.0,3.4,11.1,10.0,21.8,12.4,,-2.3,2401.0,2379.6,,,,,,,,,,,,,,,+28.4,+12,+7,+3.4,+4.998,+0.000,+0.000,+28.3,+11.1,+10.0,+60.7,+27.6,+0,,,,
78.56,1,5,2018-07-27 08:30:41,+43.50304,+5.37192,480,0.1,0.0,-1.7,,,,,08:30:41,+4.7,+0.8,132.5,0.0,+357,+0.1,+0.01,+1.0,,+47,+31,0.0,29.89,+2365,,,324,,60.0,+0,,1,1,,,,,,,,,,,,,,,,,,,61,+28,2373,2373,19.2,0.0,0.0,3.4,11.1,10.0,21.8,12.4,,-2.3,2401.0,2379.6,,,,,,,,,,,,,,,+28.5,+12,+7,+3.4,+4.998,+0.000,+0.000,+28.4,+11.1,+10.0,+60.8,+27.6,+0,,,,
